<?xml version="1.0" encoding="UTF-8"?>
<response>
	<info>
		<statusCode>0</statusCode>
		<messages/>
		<copyright>
			<imageUrl>http://api.mqcdn.com/res/mqlogo.gif</imageUrl>
			<imageAltText>© 2012 MapQuest, Inc.</imageAltText>
			<text>© 2012 MapQuest, Inc.</text>
		</copyright>
	</info>
	<route>
		<sessionId>500bdf3c-0320-000b-02b7-6896-002655800398</sessionId>
		<options>
			<shapeFormat>raw</shapeFormat>
			<generalize>0.0</generalize>
			<maxLinkId>0</maxLinkId>
			<narrativeType>none</narrativeType>
			<stateBoundaryDisplay>true</stateBoundaryDisplay>
			<countryBoundaryDisplay>true</countryBoundaryDisplay>
			<sideOfStreetDisplay>true</sideOfStreetDisplay>
			<destinationManeuverDisplay>true</destinationManeuverDisplay>
			<avoidTimedConditions>false</avoidTimedConditions>
			<enhancedNarrative>false</enhancedNarrative>
			<returnLinkDirections>false</returnLinkDirections>
			<timeType>0</timeType>
			<routeType>FASTEST</routeType>
			<locale>en_US</locale>
			<unit>K</unit>
			<tryAvoidLinkIds/>
			<mustAvoidLinkIds/>
			<manmaps>true</manmaps>
			<drivingStyle>2</drivingStyle>
			<highwayEfficiency>22.0</highwayEfficiency>
			<useTraffic>false</useTraffic>
		</options>
		<boundingBox>
			<ul>
				<lat>51.399501</lat>
				<lng>-1.03936</lng>
			</ul>
			<lr>
				<lat>51.376419</lat>
				<lng>-1.002066</lng>
			</lr>
		</boundingBox>
		<distance>21.8195</distance>
		<time>2263</time>
		<realTime>-1</realTime>
		<fuelUsed>0.675822</fuelUsed>
		<formattedTime>00:37:43</formattedTime>
		<legs>
			<leg>
				<distance>4.8296</distance>
				<time>570</time>
				<formattedTime>00:09:30</formattedTime>
				<index>0</index>
				<maneuvers>
					<maneuver>
						<startPoint>
							<lat>51.4549</lat>
							<lng>-0.9748</lng>
						</startPoint>
						<maneuverNotes/>
						<distance>0.074</distance>
						<time>7</time>
						<formattedTime>00:00:07</formattedTime>
						<attributes>0</attributes>
						<turnType>0</turnType>
						<direction>2</direction>
						<narrative/>
						<directionName>Northwest</directionName>
						<index>0</index>
						<streets>
							<street>St Mary's Butts</street>
						</streets>
						<signs/>
						<iconUrl><![CDATA[http://content.mapquest.com/mqsite/turnsigns/rs_straight_sm.gif]]></iconUrl>
						<linkIds/>
						<mapUrl><![CDATA[http://open.mapquestapi.com/staticmap/v4/getmap?type=map&size=225,160&pois=purple-2,51.454856,-0.9747859999999999,0,0|purple-3,51.455444,-0.975305,0,0|&center=51.45515,-0.9750455&zoom=15&key=Kmjtd%7Cluu7n162n1%2C22%3Do5-h61wh&rand=462085745&session=500bdf3c-0320-000b-02b7-6896-002655800398]]></mapUrl>
					</maneuver>
					<maneuver>
						<startPoint>
							<lat>51.4554</lat>
							<lng>-0.9753</lng>
						</startPoint>
						<maneuverNotes/>
						<distance>0.0982</distance>
						<time>8</time>
						<formattedTime>00:00:08</formattedTime>
						<attributes>0</attributes>
						<turnType>0</turnType>
						<direction>2</direction>
						<narrative/>
						<directionName>Northwest</directionName>
						<index>1</index>
						<streets>
							<street>West Street</street>
						</streets>
						<signs/>
						<iconUrl><![CDATA[http://content.mapquest.com/mqsite/turnsigns/rs_straight_sm.gif]]></iconUrl>
						<linkIds/>
						<mapUrl><![CDATA[http://open.mapquestapi.com/staticmap/v4/getmap?type=map&size=225,160&pois=purple-3,51.455444,-0.975305,0,0|purple-4,51.456222,-0.975957,0,0|&center=51.455833,-0.9756309999999999&zoom=14&key=Kmjtd%7Cluu7n162n1%2C22%3Do5-h61wh&rand=462085745&session=500bdf3c-0320-000b-02b7-6896-002655800398]]></mapUrl>
					</maneuver>
					<maneuver>
						<startPoint>
							<lat>51.4562</lat>
							<lng>-0.976</lng>
						</startPoint>
						<maneuverNotes/>
						<distance>0.0483</distance>
						<time>7</time>
						<formattedTime>00:00:07</formattedTime>
						<attributes>0</attributes>
						<turnType>17</turnType>
						<direction>2</direction>
						<narrative/>
						<directionName>Northwest</directionName>
						<index>2</index>
						<streets>
							<street>West Street</street>
						</streets>
						<signs/>
						<iconUrl><![CDATA[http://content.mapquest.com/mqsite/turnsigns/rs_fork_left2_sm.gif]]></iconUrl>
						<linkIds/>
						<mapUrl><![CDATA[http://open.mapquestapi.com/staticmap/v4/getmap?type=map&size=225,160&pois=purple-4,51.456222,-0.975957,0,0|purple-5,51.456568999999995,-0.976347,0,0|&center=51.4563955,-0.9761519999999999&zoom=15&key=Kmjtd%7Cluu7n162n1%2C22%3Do5-h61wh&rand=462085745&session=500bdf3c-0320-000b-02b7-6896-002655800398]]></mapUrl>
					</maneuver>
					<maneuver>
						<startPoint>
							<lat>51.4566</lat>
							<lng>-0.9763</lng>
						</startPoint>
						<maneuverNotes/>
						<distance>0.0805</distance>
						<time>16</time>
						<formattedTime>00:00:16</formattedTime>
						<attributes>0</attributes>
						<turnType>6</turnType>
						<direction>7</direction>
						<narrative/>
						<directionName>West</directionName>
						<index>3</index>
						<streets>
							<street>Friar Street</street>
						</streets>
						<signs/>
						<iconUrl><![CDATA[http://content.mapquest.com/mqsite/turnsigns/rs_left_sm.gif]]></iconUrl>
						<linkIds/>
						<mapUrl><![CDATA[http://open.mapquestapi.com/staticmap/v4/getmap?type=map&size=225,160&pois=purple-5,51.456568999999995,-0.976347,0,0|purple-6,51.456398,-0.977443,0,0|&center=51.4564835,-0.976895&zoom=15&key=Kmjtd%7Cluu7n162n1%2C22%3Do5-h61wh&rand=462085745&session=500bdf3c-0320-000b-02b7-6896-002655800398]]></mapUrl>
					</maneuver>
					<maneuver>
						<startPoint>
							<lat>51.4564</lat>
							<lng>-0.9774</lng>
						</startPoint>
						<maneuverNotes/>
						<distance>0.8465</distance>
						<time>63</time>
						<formattedTime>00:01:03</formattedTime>
						<attributes>0</attributes>
						<turnType>7</turnType>
						<direction>5</direction>
						<narrative/>
						<directionName>Southeast</directionName>
						<index>4</index>
						<streets>
							<street>A329</street>
							<street>Inner Distribution Road</street>
						</streets>
						<signs/>
						<iconUrl><![CDATA[http://content.mapquest.com/mqsite/turnsigns/rs_slight_left_sm.gif]]></iconUrl>
						<linkIds/>
						<mapUrl><![CDATA[http://open.mapquestapi.com/staticmap/v4/getmap?type=map&size=225,160&pois=purple-6,51.456398,-0.977443,0,0|purple-7,51.450565,-0.974097,0,0|&center=51.453481499999995,-0.97577&zoom=10&key=Kmjtd%7Cluu7n162n1%2C22%3Do5-h61wh&rand=460162000&session=500bdf3c-0320-000b-02b7-6896-002655800398]]></mapUrl>
					</maneuver>
					<maneuver>
						<startPoint>
							<lat>51.4506</lat>
							<lng>-0.9741</lng>
						</startPoint>
						<maneuverNotes/>
						<distance>0.1835</distance>
						<time>14</time>
						<formattedTime>00:00:14</formattedTime>
						<attributes>0</attributes>
						<turnType>17</turnType>
						<direction>3</direction>
						<narrative/>
						<directionName>Northeast</directionName>
						<index>5</index>
						<streets>
							<street>A329</street>
							<street>Inner Distribution Road</street>
						</streets>
						<signs/>
						<iconUrl><![CDATA[http://content.mapquest.com/mqsite/turnsigns/rs_fork_left2_sm.gif]]></iconUrl>
						<linkIds/>
						<mapUrl><![CDATA[http://open.mapquestapi.com/staticmap/v4/getmap?type=map&size=225,160&pois=purple-7,51.450565,-0.974097,0,0|purple-8,51.451651999999996,-0.972111,0,0|&center=51.4511085,-0.973104&zoom=13&key=Kmjtd%7Cluu7n162n1%2C22%3Do5-h61wh&rand=460162000&session=500bdf3c-0320-000b-02b7-6896-002655800398]]></mapUrl>
					</maneuver>
					<maneuver>
						<startPoint>
							<lat>51.4517</lat>
							<lng>-0.9721</lng>
						</startPoint>
						<maneuverNotes/>
						<distance>0.0966</distance>
						<time>24</time>
						<formattedTime>00:00:24</formattedTime>
						<attributes>0</attributes>
						<turnType>1</turnType>
						<direction>3</direction>
						<narrative/>
						<directionName>Northeast</directionName>
						<index>6</index>
						<streets>
							<street>Mill Lane</street>
						</streets>
						<signs/>
						<iconUrl><![CDATA[http://content.mapquest.com/mqsite/turnsigns/rs_slight_right_sm.gif]]></iconUrl>
						<linkIds/>
						<mapUrl><![CDATA[http://open.mapquestapi.com/staticmap/v4/getmap?type=map&size=225,160&pois=purple-8,51.451651999999996,-0.972111,0,0|purple-9,51.451907999999996,-0.971213,0,0|&center=51.45178,-0.971662&zoom=15&key=Kmjtd%7Cluu7n162n1%2C22%3Do5-h61wh&rand=460162000&session=500bdf3c-0320-000b-02b7-6896-002655800398]]></mapUrl>
					</maneuver>
					<maneuver>
						<startPoint>
							<lat>51.4519</lat>
							<lng>-0.9712</lng>
						</startPoint>
						<maneuverNotes/>
						<distance>0.2494</distance>
						<time>32</time>
						<formattedTime>00:00:32</formattedTime>
						<attributes>0</attributes>
						<turnType>6</turnType>
						<direction>3</direction>
						<narrative/>
						<directionName>Northeast</directionName>
						<index>7</index>
						<streets>
							<street>Mill Lane</street>
						</streets>
						<signs/>
						<iconUrl><![CDATA[http://content.mapquest.com/mqsite/turnsigns/rs_left_sm.gif]]></iconUrl>
						<linkIds/>
						<mapUrl><![CDATA[http://open.mapquestapi.com/staticmap/v4/getmap?type=map&size=225,160&pois=purple-9,51.451907999999996,-0.971213,0,0|purple-10,51.452937999999996,-0.968362,0,0|&center=51.452422999999996,-0.9697875&zoom=13&key=Kmjtd%7Cluu7n162n1%2C22%3Do5-h61wh&rand=460162000&session=500bdf3c-0320-000b-02b7-6896-002655800398]]></mapUrl>
					</maneuver>
					<maneuver>
						<startPoint>
							<lat>51.4529</lat>
							<lng>-0.9684</lng>
						</startPoint>
						<maneuverNotes/>
						<distance>2.2096</distance>
						<time>209</time>
						<formattedTime>00:03:29</formattedTime>
						<attributes>0</attributes>
						<turnType>1</turnType>
						<direction>8</direction>
						<narrative/>
						<directionName>East</directionName>
						<index>8</index>
						<streets>
							<street>A327</street>
						</streets>
						<signs/>
						<iconUrl><![CDATA[http://content.mapquest.com/mqsite/turnsigns/rs_slight_right_sm.gif]]></iconUrl>
						<linkIds/>
						<mapUrl><![CDATA[http://open.mapquestapi.com/staticmap/v4/getmap?type=map&size=225,160&pois=purple-10,51.452937999999996,-0.968362,0,0|purple-11,51.439125,-0.9508019999999999,0,0|&center=51.4460315,-0.9595819999999999&zoom=9&key=Kmjtd%7Cluu7n162n1%2C22%3Do5-h61wh&rand=460162000&session=500bdf3c-0320-000b-02b7-6896-002655800398]]></mapUrl>
					</maneuver>
					<maneuver>
						<startPoint>
							<lat>51.4391</lat>
							<lng>-0.9508</lng>
						</startPoint>
						<maneuverNotes/>
						<distance>0.4474</distance>
						<time>39</time>
						<formattedTime>00:00:39</formattedTime>
						<attributes>0</attributes>
						<turnType>6</turnType>
						<direction>5</direction>
						<narrative/>
						<directionName>Southeast</directionName>
						<index>9</index>
						<streets>
							<street>C204</street>
							<street>Pepper Lane</street>
						</streets>
						<signs/>
						<iconUrl><![CDATA[http://content.mapquest.com/mqsite/turnsigns/rs_left_sm.gif]]></iconUrl>
						<linkIds/>
						<mapUrl><![CDATA[http://open.mapquestapi.com/staticmap/v4/getmap?type=map&size=225,160&pois=purple-11,51.439125,-0.9508019999999999,0,0|purple-12,51.437286,-0.945774,0,0|&center=51.438205499999995,-0.948288&zoom=12&key=Kmjtd%7Cluu7n162n1%2C22%3Do5-h61wh&rand=460162000&session=500bdf3c-0320-000b-02b7-6896-002655800398]]></mapUrl>
					</maneuver>
					<maneuver>
						<startPoint>
							<lat>51.4373</lat>
							<lng>-0.9458</lng>
						</startPoint>
						<maneuverNotes/>
						<distance>0.0676</distance>
						<time>15</time>
						<formattedTime>00:00:15</formattedTime>
						<attributes>0</attributes>
						<turnType>6</turnType>
						<direction>3</direction>
						<narrative/>
						<directionName>Northeast</directionName>
						<index>10</index>
						<streets/>
						<signs/>
						<iconUrl><![CDATA[http://content.mapquest.com/mqsite/turnsigns/rs_left_sm.gif]]></iconUrl>
						<linkIds/>
						<mapUrl><![CDATA[http://open.mapquestapi.com/staticmap/v4/getmap?type=map&size=225,160&pois=purple-12,51.437286,-0.945774,0,0|purple-13,51.437801,-0.945263,0,0|&center=51.437543500000004,-0.9455184999999999&zoom=15&key=Kmjtd%7Cluu7n162n1%2C22%3Do5-h61wh&rand=460162000&session=500bdf3c-0320-000b-02b7-6896-002655800398]]></mapUrl>
					</maneuver>
					<maneuver>
						<startPoint>
							<lat>51.4378</lat>
							<lng>-0.9453</lng>
						</startPoint>
						<maneuverNotes/>
						<distance>0.1255</distance>
						<time>17</time>
						<formattedTime>00:00:17</formattedTime>
						<attributes>0</attributes>
						<turnType>2</turnType>
						<direction>8</direction>
						<narrative/>
						<directionName>East</directionName>
						<index>11</index>
						<streets/>
						<signs/>
						<iconUrl><![CDATA[http://content.mapquest.com/mqsite/turnsigns/rs_right_sm.gif]]></iconUrl>
						<linkIds/>
						<mapUrl><![CDATA[http://open.mapquestapi.com/staticmap/v4/getmap?type=map&size=225,160&pois=purple-13,51.437801,-0.945263,0,0|purple-14,51.437453999999995,-0.943557,0,0|&center=51.4376275,-0.94441&zoom=14&key=Kmjtd%7Cluu7n162n1%2C22%3Do5-h61wh&rand=460162000&session=500bdf3c-0320-000b-02b7-6896-002655800398]]></mapUrl>
					</maneuver>
					<maneuver>
						<startPoint>
							<lat>51.4375</lat>
							<lng>-0.9436</lng>
						</startPoint>
						<maneuverNotes/>
						<distance>0.0966</distance>
						<time>21</time>
						<formattedTime>00:00:21</formattedTime>
						<attributes>0</attributes>
						<turnType>7</turnType>
						<direction>3</direction>
						<narrative/>
						<directionName>Northeast</directionName>
						<index>12</index>
						<streets/>
						<signs/>
						<iconUrl><![CDATA[http://content.mapquest.com/mqsite/turnsigns/rs_slight_left_sm.gif]]></iconUrl>
						<linkIds/>
						<mapUrl><![CDATA[http://open.mapquestapi.com/staticmap/v4/getmap?type=map&size=225,160&pois=purple-14,51.437453999999995,-0.943557,0,0|purple-15,51.438053,-0.9427139999999999,0,0|&center=51.4377535,-0.9431354999999999&zoom=15&key=Kmjtd%7Cluu7n162n1%2C22%3Do5-h61wh&rand=460162000&session=500bdf3c-0320-000b-02b7-6896-002655800398]]></mapUrl>
					</maneuver>
					<maneuver>
						<startPoint>
							<lat>51.4381</lat>
							<lng>-0.9427</lng>
						</startPoint>
						<maneuverNotes/>
						<distance>0.0579</distance>
						<time>11</time>
						<formattedTime>00:00:11</formattedTime>
						<attributes>0</attributes>
						<turnType>2</turnType>
						<direction>8</direction>
						<narrative/>
						<directionName>East</directionName>
						<index>13</index>
						<streets/>
						<signs/>
						<iconUrl><![CDATA[http://content.mapquest.com/mqsite/turnsigns/rs_right_sm.gif]]></iconUrl>
						<linkIds/>
						<mapUrl><![CDATA[http://open.mapquestapi.com/staticmap/v4/getmap?type=map&size=225,160&pois=purple-15,51.438053,-0.9427139999999999,0,0|purple-16,51.437999,-0.941932,0,0|&center=51.438025999999994,-0.942323&zoom=15&key=Kmjtd%7Cluu7n162n1%2C22%3Do5-h61wh&rand=460162000&session=500bdf3c-0320-000b-02b7-6896-002655800398]]></mapUrl>
					</maneuver>
					<maneuver>
						<startPoint>
							<lat>51.438</lat>
							<lng>-0.9419</lng>
						</startPoint>
						<maneuverNotes/>
						<distance>0.1078</distance>
						<time>60</time>
						<formattedTime>00:01:00</formattedTime>
						<attributes>0</attributes>
						<turnType>6</turnType>
						<direction>1</direction>
						<narrative/>
						<directionName>North</directionName>
						<index>14</index>
						<streets/>
						<signs/>
						<iconUrl><![CDATA[http://content.mapquest.com/mqsite/turnsigns/rs_left_sm.gif]]></iconUrl>
						<linkIds/>
						<mapUrl><![CDATA[http://open.mapquestapi.com/staticmap/v4/getmap?type=map&size=225,160&pois=purple-16,51.437999,-0.941932,0,0|purple-17,51.438914999999994,-0.941437,0,0|&center=51.438457,-0.9416845&zoom=14&key=Kmjtd%7Cluu7n162n1%2C22%3Do5-h61wh&rand=460162000&session=500bdf3c-0320-000b-02b7-6896-002655800398]]></mapUrl>
					</maneuver>
					<maneuver>
						<startPoint>
							<lat>51.4389</lat>
							<lng>-0.9414</lng>
						</startPoint>
						<maneuverNotes/>
						<distance>0.0402</distance>
						<time>27</time>
						<formattedTime>00:00:27</formattedTime>
						<attributes>0</attributes>
						<turnType>2</turnType>
						<direction>8</direction>
						<narrative/>
						<directionName>East</directionName>
						<index>15</index>
						<streets/>
						<signs/>
						<iconUrl><![CDATA[http://content.mapquest.com/mqsite/turnsigns/rs_right_sm.gif]]></iconUrl>
						<linkIds/>
						<mapUrl><![CDATA[http://open.mapquestapi.com/staticmap/v4/getmap?type=map&size=225,160&pois=purple-17,51.438914999999994,-0.941437,0,0|purple-18,51.438795999999996,-0.9409,0,0|&center=51.438855499999995,-0.9411685&zoom=15&key=Kmjtd%7Cluu7n162n1%2C22%3Do5-h61wh&rand=460162000&session=500bdf3c-0320-000b-02b7-6896-002655800398]]></mapUrl>
					</maneuver>
					<maneuver>
						<startPoint>
							<lat>51.4388</lat>
							<lng>-0.9409</lng>
						</startPoint>
						<maneuverNotes/>
						<distance>0.0</distance>
						<time>0</time>
						<formattedTime>00:00:00</formattedTime>
						<attributes>0</attributes>
						<turnType>6</turnType>
						<direction>1</direction>
						<narrative/>
						<directionName>North</directionName>
						<index>16</index>
						<streets/>
						<signs/>
						<iconUrl><![CDATA[http://content.mapquest.com/mqsite/turnsigns/rs_left_sm.gif]]></iconUrl>
						<linkIds/>
						<mapUrl><![CDATA[http://open.mapquestapi.com/staticmap/v4/getmap?type=map&size=225,160&pois=purple-18,51.438795999999996,-0.9409,0,0|purple-19,51.4388,-0.940897,0,0|&center=51.438798,-0.9408985&zoom=15&key=Kmjtd%7Cluu7n162n1%2C22%3Do5-h61wh&rand=460162000&session=500bdf3c-0320-000b-02b7-6896-002655800398]]></mapUrl>
					</maneuver>
					<maneuver>
						<startPoint/>
						<maneuverNotes/>
						<distance>0.0</distance>
						<time>0</time>
						<formattedTime>00:00:00</formattedTime>
						<attributes>0</attributes>
						<turnType>-1</turnType>
						<direction>0</direction>
						<narrative/>
						<directionName/>
						<index>17</index>
						<streets/>
						<signs/>
						<linkIds/>
						<mapUrl><![CDATA[]]></mapUrl>
					</maneuver>
				</maneuvers>
				<hasTollRoad>false</hasTollRoad>
				<hasFerry>false</hasFerry>
				<hasHighway>false</hasHighway>
				<hasSeasonalClosure>false</hasSeasonalClosure>
				<hasUnpaved>false</hasUnpaved>
				<hasCountryCross>false</hasCountryCross>
			</leg>
			<leg>
				<distance>10.7472</distance>
				<time>931</time>
				<formattedTime>00:15:31</formattedTime>
				<index>1</index>
				<maneuvers>
					<maneuver>
						<startPoint>
							<lat>51.4388</lat>
							<lng>-0.9409</lng>
						</startPoint>
						<maneuverNotes/>
						<distance>0.0</distance>
						<time>9</time>
						<formattedTime>00:00:09</formattedTime>
						<attributes>0</attributes>
						<turnType>0</turnType>
						<direction>4</direction>
						<narrative/>
						<directionName>South</directionName>
						<index>18</index>
						<streets/>
						<signs/>
						<iconUrl><![CDATA[http://content.mapquest.com/mqsite/turnsigns/rs_straight_sm.gif]]></iconUrl>
						<linkIds/>
						<mapUrl><![CDATA[http://open.mapquestapi.com/staticmap/v4/getmap?type=map&size=225,160&pois=purple-20,51.4388,-0.940897,0,0|purple-21,51.438795999999996,-0.9409,0,0|&center=51.438798,-0.9408985&zoom=15&key=Kmjtd%7Cluu7n162n1%2C22%3Do5-h61wh&rand=460162000&session=500bdf3c-0320-000b-02b7-6896-002655800398]]></mapUrl>
					</maneuver>
					<maneuver>
						<startPoint>
							<lat>51.4388</lat>
							<lng>-0.9409</lng>
						</startPoint>
						<maneuverNotes/>
						<distance>0.0402</distance>
						<time>27</time>
						<formattedTime>00:00:27</formattedTime>
						<attributes>0</attributes>
						<turnType>2</turnType>
						<direction>7</direction>
						<narrative/>
						<directionName>West</directionName>
						<index>19</index>
						<streets/>
						<signs/>
						<iconUrl><![CDATA[http://content.mapquest.com/mqsite/turnsigns/rs_right_sm.gif]]></iconUrl>
						<linkIds/>
						<mapUrl><![CDATA[http://open.mapquestapi.com/staticmap/v4/getmap?type=map&size=225,160&pois=purple-21,51.438795999999996,-0.9409,0,0|purple-22,51.438914999999994,-0.941437,0,0|&center=51.438855499999995,-0.9411685&zoom=15&key=Kmjtd%7Cluu7n162n1%2C22%3Do5-h61wh&rand=460162000&session=500bdf3c-0320-000b-02b7-6896-002655800398]]></mapUrl>
					</maneuver>
					<maneuver>
						<startPoint>
							<lat>51.4389</lat>
							<lng>-0.9414</lng>
						</startPoint>
						<maneuverNotes/>
						<distance>0.1078</distance>
						<time>63</time>
						<formattedTime>00:01:03</formattedTime>
						<attributes>0</attributes>
						<turnType>6</turnType>
						<direction>4</direction>
						<narrative/>
						<directionName>South</directionName>
						<index>20</index>
						<streets/>
						<signs/>
						<iconUrl><![CDATA[http://content.mapquest.com/mqsite/turnsigns/rs_left_sm.gif]]></iconUrl>
						<linkIds/>
						<mapUrl><![CDATA[http://open.mapquestapi.com/staticmap/v4/getmap?type=map&size=225,160&pois=purple-22,51.438914999999994,-0.941437,0,0|purple-23,51.437999,-0.941932,0,0|&center=51.438457,-0.9416845&zoom=14&key=Kmjtd%7Cluu7n162n1%2C22%3Do5-h61wh&rand=460162000&session=500bdf3c-0320-000b-02b7-6896-002655800398]]></mapUrl>
					</maneuver>
					<maneuver>
						<startPoint>
							<lat>51.438</lat>
							<lng>-0.9419</lng>
						</startPoint>
						<maneuverNotes/>
						<distance>0.0579</distance>
						<time>8</time>
						<formattedTime>00:00:08</formattedTime>
						<attributes>0</attributes>
						<turnType>2</turnType>
						<direction>7</direction>
						<narrative/>
						<directionName>West</directionName>
						<index>21</index>
						<streets/>
						<signs/>
						<iconUrl><![CDATA[http://content.mapquest.com/mqsite/turnsigns/rs_right_sm.gif]]></iconUrl>
						<linkIds/>
						<mapUrl><![CDATA[http://open.mapquestapi.com/staticmap/v4/getmap?type=map&size=225,160&pois=purple-23,51.437999,-0.941932,0,0|purple-24,51.438053,-0.9427139999999999,0,0|&center=51.438025999999994,-0.942323&zoom=15&key=Kmjtd%7Cluu7n162n1%2C22%3Do5-h61wh&rand=460162000&session=500bdf3c-0320-000b-02b7-6896-002655800398]]></mapUrl>
					</maneuver>
					<maneuver>
						<startPoint>
							<lat>51.4381</lat>
							<lng>-0.9427</lng>
						</startPoint>
						<maneuverNotes/>
						<distance>0.0966</distance>
						<time>15</time>
						<formattedTime>00:00:15</formattedTime>
						<attributes>0</attributes>
						<turnType>6</turnType>
						<direction>6</direction>
						<narrative/>
						<directionName>Southwest</directionName>
						<index>22</index>
						<streets/>
						<signs/>
						<iconUrl><![CDATA[http://content.mapquest.com/mqsite/turnsigns/rs_left_sm.gif]]></iconUrl>
						<linkIds/>
						<mapUrl><![CDATA[http://open.mapquestapi.com/staticmap/v4/getmap?type=map&size=225,160&pois=purple-24,51.438053,-0.9427139999999999,0,0|purple-25,51.437453999999995,-0.943557,0,0|&center=51.4377535,-0.9431354999999999&zoom=15&key=Kmjtd%7Cluu7n162n1%2C22%3Do5-h61wh&rand=460162000&session=500bdf3c-0320-000b-02b7-6896-002655800398]]></mapUrl>
					</maneuver>
					<maneuver>
						<startPoint>
							<lat>51.4375</lat>
							<lng>-0.9436</lng>
						</startPoint>
						<maneuverNotes/>
						<distance>0.1255</distance>
						<time>20</time>
						<formattedTime>00:00:20</formattedTime>
						<attributes>0</attributes>
						<turnType>1</turnType>
						<direction>7</direction>
						<narrative/>
						<directionName>West</directionName>
						<index>23</index>
						<streets/>
						<signs/>
						<iconUrl><![CDATA[http://content.mapquest.com/mqsite/turnsigns/rs_slight_right_sm.gif]]></iconUrl>
						<linkIds/>
						<mapUrl><![CDATA[http://open.mapquestapi.com/staticmap/v4/getmap?type=map&size=225,160&pois=purple-25,51.437453999999995,-0.943557,0,0|purple-26,51.437801,-0.945263,0,0|&center=51.4376275,-0.94441&zoom=14&key=Kmjtd%7Cluu7n162n1%2C22%3Do5-h61wh&rand=460162000&session=500bdf3c-0320-000b-02b7-6896-002655800398]]></mapUrl>
					</maneuver>
					<maneuver>
						<startPoint>
							<lat>51.4378</lat>
							<lng>-0.9453</lng>
						</startPoint>
						<maneuverNotes/>
						<distance>0.0676</distance>
						<time>18</time>
						<formattedTime>00:00:18</formattedTime>
						<attributes>0</attributes>
						<turnType>6</turnType>
						<direction>6</direction>
						<narrative/>
						<directionName>Southwest</directionName>
						<index>24</index>
						<streets/>
						<signs/>
						<iconUrl><![CDATA[http://content.mapquest.com/mqsite/turnsigns/rs_left_sm.gif]]></iconUrl>
						<linkIds/>
						<mapUrl><![CDATA[http://open.mapquestapi.com/staticmap/v4/getmap?type=map&size=225,160&pois=purple-26,51.437801,-0.945263,0,0|purple-27,51.437286,-0.945774,0,0|&center=51.437543500000004,-0.9455184999999999&zoom=15&key=Kmjtd%7Cluu7n162n1%2C22%3Do5-h61wh&rand=460162000&session=500bdf3c-0320-000b-02b7-6896-002655800398]]></mapUrl>
					</maneuver>
					<maneuver>
						<startPoint>
							<lat>51.4373</lat>
							<lng>-0.9458</lng>
						</startPoint>
						<maneuverNotes/>
						<distance>0.4474</distance>
						<time>42</time>
						<formattedTime>00:00:42</formattedTime>
						<attributes>0</attributes>
						<turnType>2</turnType>
						<direction>2</direction>
						<narrative/>
						<directionName>Northwest</directionName>
						<index>25</index>
						<streets>
							<street>C204</street>
							<street>Pepper Lane</street>
						</streets>
						<signs/>
						<iconUrl><![CDATA[http://content.mapquest.com/mqsite/turnsigns/rs_right_sm.gif]]></iconUrl>
						<linkIds/>
						<mapUrl><![CDATA[http://open.mapquestapi.com/staticmap/v4/getmap?type=map&size=225,160&pois=purple-27,51.437286,-0.945774,0,0|purple-28,51.439125,-0.9508019999999999,0,0|&center=51.438205499999995,-0.948288&zoom=12&key=Kmjtd%7Cluu7n162n1%2C22%3Do5-h61wh&rand=460162000&session=500bdf3c-0320-000b-02b7-6896-002655800398]]></mapUrl>
					</maneuver>
					<maneuver>
						<startPoint>
							<lat>51.4391</lat>
							<lng>-0.9508</lng>
						</startPoint>
						<maneuverNotes/>
						<distance>2.649</distance>
						<time>218</time>
						<formattedTime>00:03:38</formattedTime>
						<attributes>0</attributes>
						<turnType>6</turnType>
						<direction>4</direction>
						<narrative/>
						<directionName>South</directionName>
						<index>26</index>
						<streets>
							<street>A327</street>
							<street>Shinfield Road</street>
						</streets>
						<signs/>
						<iconUrl><![CDATA[http://content.mapquest.com/mqsite/turnsigns/rs_left_sm.gif]]></iconUrl>
						<linkIds/>
						<mapUrl><![CDATA[http://open.mapquestapi.com/staticmap/v4/getmap?type=map&size=225,160&pois=purple-28,51.439125,-0.9508019999999999,0,0|purple-29,51.416174999999996,-0.948321,0,0|&center=51.42765,-0.9495615&zoom=8&key=Kmjtd%7Cluu7n162n1%2C22%3Do5-h61wh&rand=460162000&session=500bdf3c-0320-000b-02b7-6896-002655800398]]></mapUrl>
					</maneuver>
					<maneuver>
						<startPoint>
							<lat>51.4162</lat>
							<lng>-0.9483</lng>
						</startPoint>
						<maneuverNotes/>
						<distance>0.5423</distance>
						<time>52</time>
						<formattedTime>00:00:52</formattedTime>
						<attributes>0</attributes>
						<turnType>7</turnType>
						<direction>4</direction>
						<narrative/>
						<directionName>South</directionName>
						<index>27</index>
						<streets>
							<street>A327</street>
						</streets>
						<signs/>
						<iconUrl><![CDATA[http://content.mapquest.com/mqsite/turnsigns/rs_slight_left_sm.gif]]></iconUrl>
						<linkIds/>
						<mapUrl><![CDATA[http://open.mapquestapi.com/staticmap/v4/getmap?type=map&size=225,160&pois=purple-29,51.416174999999996,-0.948321,0,0|purple-30,51.411719999999995,-0.9501729999999999,0,0|&center=51.41394749999999,-0.949247&zoom=11&key=Kmjtd%7Cluu7n162n1%2C22%3Do5-h61wh&rand=460162000&session=500bdf3c-0320-000b-02b7-6896-002655800398]]></mapUrl>
					</maneuver>
					<maneuver>
						<startPoint>
							<lat>51.4117</lat>
							<lng>-0.9502</lng>
						</startPoint>
						<maneuverNotes/>
						<distance>0.5842</distance>
						<time>41</time>
						<formattedTime>00:00:41</formattedTime>
						<attributes>0</attributes>
						<turnType>2</turnType>
						<direction>7</direction>
						<narrative/>
						<directionName>West</directionName>
						<index>28</index>
						<streets>
							<street>Brookers Hill</street>
						</streets>
						<signs/>
						<iconUrl><![CDATA[http://content.mapquest.com/mqsite/turnsigns/rs_right_sm.gif]]></iconUrl>
						<linkIds/>
						<mapUrl><![CDATA[http://open.mapquestapi.com/staticmap/v4/getmap?type=map&size=225,160&pois=purple-30,51.411719999999995,-0.9501729999999999,0,0|purple-31,51.41101,-0.957221,0,0|&center=51.411364999999996,-0.953697&zoom=12&key=Kmjtd%7Cluu7n162n1%2C22%3Do5-h61wh&rand=460162000&session=500bdf3c-0320-000b-02b7-6896-002655800398]]></mapUrl>
					</maneuver>
					<maneuver>
						<startPoint>
							<lat>51.411</lat>
							<lng>-0.9572</lng>
						</startPoint>
						<maneuverNotes/>
						<distance>1.3406</distance>
						<time>106</time>
						<formattedTime>00:01:46</formattedTime>
						<attributes>0</attributes>
						<turnType>0</turnType>
						<direction>6</direction>
						<narrative/>
						<directionName>Southwest</directionName>
						<index>29</index>
						<streets>
							<street>Church Lane</street>
						</streets>
						<signs/>
						<iconUrl><![CDATA[http://content.mapquest.com/mqsite/turnsigns/rs_straight_sm.gif]]></iconUrl>
						<linkIds/>
						<mapUrl><![CDATA[http://open.mapquestapi.com/staticmap/v4/getmap?type=map&size=225,160&pois=purple-31,51.41101,-0.957221,0,0|purple-32,51.404758,-0.9733989999999999,0,0|&center=51.407883999999996,-0.9653099999999999&zoom=10&key=Kmjtd%7Cluu7n162n1%2C22%3Do5-h61wh&rand=460162000&session=500bdf3c-0320-000b-02b7-6896-002655800398]]></mapUrl>
					</maneuver>
					<maneuver>
						<startPoint>
							<lat>51.4048</lat>
							<lng>-0.9734</lng>
						</startPoint>
						<maneuverNotes/>
						<distance>1.5755</distance>
						<time>114</time>
						<formattedTime>00:01:54</formattedTime>
						<attributes>0</attributes>
						<turnType>6</turnType>
						<direction>4</direction>
						<narrative/>
						<directionName>South</directionName>
						<index>30</index>
						<streets>
							<street>Basingstoke Road</street>
						</streets>
						<signs/>
						<iconUrl><![CDATA[http://content.mapquest.com/mqsite/turnsigns/rs_left_sm.gif]]></iconUrl>
						<linkIds/>
						<mapUrl><![CDATA[http://open.mapquestapi.com/staticmap/v4/getmap?type=map&size=225,160&pois=purple-32,51.404758,-0.9733989999999999,0,0|purple-33,51.390766,-0.9745729999999999,0,0|&center=51.397762,-0.9739859999999999&zoom=9&key=Kmjtd%7Cluu7n162n1%2C22%3Do5-h61wh&rand=460162000&session=500bdf3c-0320-000b-02b7-6896-002655800398]]></mapUrl>
					</maneuver>
					<maneuver>
						<startPoint>
							<lat>51.3908</lat>
							<lng>-0.9746</lng>
						</startPoint>
						<maneuverNotes/>
						<distance>2.6442</distance>
						<time>169</time>
						<formattedTime>00:02:49</formattedTime>
						<attributes>0</attributes>
						<turnType>2</turnType>
						<direction>6</direction>
						<narrative/>
						<directionName>Southwest</directionName>
						<index>31</index>
						<streets>
							<street>Beech Hill Road</street>
						</streets>
						<signs/>
						<iconUrl><![CDATA[http://content.mapquest.com/mqsite/turnsigns/rs_right_sm.gif]]></iconUrl>
						<linkIds/>
						<mapUrl><![CDATA[http://open.mapquestapi.com/staticmap/v4/getmap?type=map&size=225,160&pois=purple-33,51.390766,-0.9745729999999999,0,0|purple-34,51.373915999999994,-0.998687,0,0|&center=51.382341,-0.9866299999999999&zoom=9&key=Kmjtd%7Cluu7n162n1%2C22%3Do5-h61wh&rand=460162000&session=500bdf3c-0320-000b-02b7-6896-002655800398]]></mapUrl>
					</maneuver>
					<maneuver>
						<startPoint>
							<lat>51.3739</lat>
							<lng>-0.9987</lng>
						</startPoint>
						<maneuverNotes/>
						<distance>0.4683</distance>
						<time>29</time>
						<formattedTime>00:00:29</formattedTime>
						<attributes>0</attributes>
						<turnType>2</turnType>
						<direction>1</direction>
						<narrative/>
						<directionName>North</directionName>
						<index>32</index>
						<streets/>
						<signs/>
						<iconUrl><![CDATA[http://content.mapquest.com/mqsite/turnsigns/rs_right_sm.gif]]></iconUrl>
						<linkIds/>
						<mapUrl><![CDATA[http://open.mapquestapi.com/staticmap/v4/getmap?type=map&size=225,160&pois=purple-34,51.373915999999994,-0.998687,0,0|purple-35,51.376419,-1.0028979999999998,0,0|&center=51.375167499999996,-1.0007925&zoom=12&key=Kmjtd%7Cluu7n162n1%2C22%3Do5-h61wh&rand=460162000&session=500bdf3c-0320-000b-02b7-6896-002655800398]]></mapUrl>
					</maneuver>
					<maneuver>
						<startPoint/>
						<maneuverNotes/>
						<distance>0.0</distance>
						<time>0</time>
						<formattedTime>00:00:00</formattedTime>
						<attributes>0</attributes>
						<turnType>-1</turnType>
						<direction>0</direction>
						<narrative/>
						<directionName/>
						<index>33</index>
						<streets/>
						<signs/>
						<linkIds/>
						<mapUrl><![CDATA[]]></mapUrl>
					</maneuver>
				</maneuvers>
				<hasTollRoad>false</hasTollRoad>
				<hasFerry>false</hasFerry>
				<hasHighway>false</hasHighway>
				<hasSeasonalClosure>false</hasSeasonalClosure>
				<hasUnpaved>false</hasUnpaved>
				<hasCountryCross>false</hasCountryCross>
			</leg>
			<leg>
				<distance>6.2426</distance>
				<time>762</time>
				<formattedTime>00:12:42</formattedTime>
				<index>2</index>
				<maneuvers>
					<maneuver>
						<startPoint>
							<lat>51.3764</lat>
							<lng>-1.0029</lng>
						</startPoint>
						<maneuverNotes/>
						<distance>0.5842</distance>
						<time>42</time>
						<formattedTime>00:00:42</formattedTime>
						<attributes>0</attributes>
						<turnType>0</turnType>
						<direction>1</direction>
						<narrative/>
						<directionName>North</directionName>
						<index>34</index>
						<streets/>
						<signs/>
						<iconUrl><![CDATA[http://content.mapquest.com/mqsite/turnsigns/rs_straight_sm.gif]]></iconUrl>
						<linkIds/>
						<mapUrl><![CDATA[http://open.mapquestapi.com/staticmap/v4/getmap?type=map&size=225,160&pois=purple-36,51.376419,-1.0028979999999998,0,0|purple-37,51.381603,-1.002089,0,0|&center=51.379011,-1.0024935&zoom=11&key=Kmjtd%7Cluu7n162n1%2C22%3Do5-h61wh&rand=460162000&session=500bdf3c-0320-000b-02b7-6896-002655800398]]></mapUrl>
					</maneuver>
					<maneuver>
						<startPoint>
							<lat>51.3816</lat>
							<lng>-1.0021</lng>
						</startPoint>
						<maneuverNotes/>
						<distance>0.9737</distance>
						<time>101</time>
						<formattedTime>00:01:41</formattedTime>
						<attributes>0</attributes>
						<turnType>6</turnType>
						<direction>2</direction>
						<narrative/>
						<directionName>Northwest</directionName>
						<index>35</index>
						<streets>
							<street>Cross Lane</street>
						</streets>
						<signs/>
						<iconUrl><![CDATA[http://content.mapquest.com/mqsite/turnsigns/rs_left_sm.gif]]></iconUrl>
						<linkIds/>
						<mapUrl><![CDATA[http://open.mapquestapi.com/staticmap/v4/getmap?type=map&size=225,160&pois=purple-37,51.381603,-1.002089,0,0|purple-38,51.386119,-1.013512,0,0|&center=51.383860999999996,-1.0078005&zoom=11&key=Kmjtd%7Cluu7n162n1%2C22%3Do5-h61wh&rand=460162000&session=500bdf3c-0320-000b-02b7-6896-002655800398]]></mapUrl>
					</maneuver>
					<maneuver>
						<startPoint>
							<lat>51.3861</lat>
							<lng>-1.0135</lng>
						</startPoint>
						<maneuverNotes/>
						<distance>0.3927</distance>
						<time>23</time>
						<formattedTime>00:00:23</formattedTime>
						<attributes>0</attributes>
						<turnType>6</turnType>
						<direction>7</direction>
						<narrative/>
						<directionName>West</directionName>
						<index>36</index>
						<streets/>
						<signs/>
						<iconUrl><![CDATA[http://content.mapquest.com/mqsite/turnsigns/rs_left_sm.gif]]></iconUrl>
						<linkIds/>
						<mapUrl><![CDATA[http://open.mapquestapi.com/staticmap/v4/getmap?type=map&size=225,160&pois=purple-38,51.386119,-1.013512,0,0|purple-39,51.386344,-1.0191569999999999,0,0|&center=51.3862315,-1.0163345&zoom=12&key=Kmjtd%7Cluu7n162n1%2C22%3Do5-h61wh&rand=460162000&session=500bdf3c-0320-000b-02b7-6896-002655800398]]></mapUrl>
					</maneuver>
					<maneuver>
						<startPoint>
							<lat>51.3863</lat>
							<lng>-1.0192</lng>
						</startPoint>
						<maneuverNotes/>
						<distance>0.0837</distance>
						<time>14</time>
						<formattedTime>00:00:14</formattedTime>
						<attributes>0</attributes>
						<turnType>7</turnType>
						<direction>6</direction>
						<narrative/>
						<directionName>Southwest</directionName>
						<index>37</index>
						<streets/>
						<signs/>
						<iconUrl><![CDATA[http://content.mapquest.com/mqsite/turnsigns/rs_slight_left_sm.gif]]></iconUrl>
						<linkIds/>
						<mapUrl><![CDATA[http://open.mapquestapi.com/staticmap/v4/getmap?type=map&size=225,160&pois=purple-39,51.386344,-1.0191569999999999,0,0|purple-40,51.385996999999996,-1.020228,0,0|&center=51.3861705,-1.0196925&zoom=15&key=Kmjtd%7Cluu7n162n1%2C22%3Do5-h61wh&rand=460162000&session=500bdf3c-0320-000b-02b7-6896-002655800398]]></mapUrl>
					</maneuver>
					<maneuver>
						<startPoint>
							<lat>51.386</lat>
							<lng>-1.0202</lng>
						</startPoint>
						<maneuverNotes/>
						<distance>1.6415</distance>
						<time>111</time>
						<formattedTime>00:01:51</formattedTime>
						<attributes>0</attributes>
						<turnType>2</turnType>
						<direction>1</direction>
						<narrative/>
						<directionName>North</directionName>
						<index>38</index>
						<streets>
							<street>Goodboys Lane</street>
						</streets>
						<signs/>
						<iconUrl><![CDATA[http://content.mapquest.com/mqsite/turnsigns/rs_right_sm.gif]]></iconUrl>
						<linkIds/>
						<mapUrl><![CDATA[http://open.mapquestapi.com/staticmap/v4/getmap?type=map&size=225,160&pois=purple-40,51.385996999999996,-1.020228,0,0|purple-41,51.399501,-1.024158,0,0|&center=51.392748999999995,-1.022193&zoom=9&key=Kmjtd%7Cluu7n162n1%2C22%3Do5-h61wh&rand=460162000&session=500bdf3c-0320-000b-02b7-6896-002655800398]]></mapUrl>
					</maneuver>
					<maneuver>
						<startPoint>
							<lat>51.3995</lat>
							<lng>-1.0242</lng>
						</startPoint>
						<maneuverNotes/>
						<distance>0.626</distance>
						<time>46</time>
						<formattedTime>00:00:46</formattedTime>
						<attributes>0</attributes>
						<turnType>6</turnType>
						<direction>6</direction>
						<narrative/>
						<directionName>Southwest</directionName>
						<index>39</index>
						<streets>
							<street>Goring Lane</street>
						</streets>
						<signs/>
						<iconUrl><![CDATA[http://content.mapquest.com/mqsite/turnsigns/rs_left_sm.gif]]></iconUrl>
						<linkIds/>
						<mapUrl><![CDATA[http://open.mapquestapi.com/staticmap/v4/getmap?type=map&size=225,160&pois=purple-41,51.399501,-1.024158,0,0|purple-42,51.397056,-1.031923,0,0|&center=51.3982785,-1.0280405&zoom=11&key=Kmjtd%7Cluu7n162n1%2C22%3Do5-h61wh&rand=460162000&session=500bdf3c-0320-000b-02b7-6896-002655800398]]></mapUrl>
					</maneuver>
					<maneuver>
						<startPoint>
							<lat>51.3971</lat>
							<lng>-1.0319</lng>
						</startPoint>
						<maneuverNotes/>
						<distance>1.3068</distance>
						<time>123</time>
						<formattedTime>00:02:03</formattedTime>
						<attributes>0</attributes>
						<turnType>6</turnType>
						<direction>6</direction>
						<narrative/>
						<directionName>Southwest</directionName>
						<index>40</index>
						<streets>
							<street>New Road</street>
						</streets>
						<signs/>
						<iconUrl><![CDATA[http://content.mapquest.com/mqsite/turnsigns/rs_left_sm.gif]]></iconUrl>
						<linkIds/>
						<mapUrl><![CDATA[http://open.mapquestapi.com/staticmap/v4/getmap?type=map&size=225,160&pois=purple-42,51.397056,-1.031923,0,0|purple-43,51.387865999999995,-1.03936,0,0|&center=51.392461,-1.0356415&zoom=10&key=Kmjtd%7Cluu7n162n1%2C22%3Do5-h61wh&rand=460162000&session=500bdf3c-0320-000b-02b7-6896-002655800398]]></mapUrl>
					</maneuver>
					<maneuver>
						<startPoint>
							<lat>51.3879</lat>
							<lng>-1.0394</lng>
						</startPoint>
						<maneuverNotes/>
						<distance>0.2849</distance>
						<time>131</time>
						<formattedTime>00:02:11</formattedTime>
						<attributes>0</attributes>
						<turnType>6</turnType>
						<direction>8</direction>
						<narrative/>
						<directionName>East</directionName>
						<index>41</index>
						<streets/>
						<signs/>
						<iconUrl><![CDATA[http://content.mapquest.com/mqsite/turnsigns/rs_left_sm.gif]]></iconUrl>
						<linkIds/>
						<mapUrl><![CDATA[http://open.mapquestapi.com/staticmap/v4/getmap?type=map&size=225,160&pois=purple-43,51.387865999999995,-1.03936,0,0|purple-44,51.387428,-1.035382,0,0|&center=51.387647,-1.037371&zoom=13&key=Kmjtd%7Cluu7n162n1%2C22%3Do5-h61wh&rand=460162000&session=500bdf3c-0320-000b-02b7-6896-002655800398]]></mapUrl>
					</maneuver>
					<maneuver>
						<startPoint>
							<lat>51.3874</lat>
							<lng>-1.0354</lng>
						</startPoint>
						<maneuverNotes/>
						<distance>0.0113</distance>
						<time>14</time>
						<formattedTime>00:00:14</formattedTime>
						<attributes>0</attributes>
						<turnType>7</turnType>
						<direction>3</direction>
						<narrative/>
						<directionName>Northeast</directionName>
						<index>42</index>
						<streets/>
						<signs/>
						<iconUrl><![CDATA[http://content.mapquest.com/mqsite/turnsigns/rs_slight_left_sm.gif]]></iconUrl>
						<linkIds/>
						<mapUrl><![CDATA[http://open.mapquestapi.com/staticmap/v4/getmap?type=map&size=225,160&pois=purple-44,51.387428,-1.035382,0,0|purple-45,51.387462,-1.0352459999999999,0,0|&center=51.387445,-1.035314&zoom=15&key=Kmjtd%7Cluu7n162n1%2C22%3Do5-h61wh&rand=460162000&session=500bdf3c-0320-000b-02b7-6896-002655800398]]></mapUrl>
					</maneuver>
					<maneuver>
						<startPoint>
							<lat>51.3875</lat>
							<lng>-1.0352</lng>
						</startPoint>
						<maneuverNotes/>
						<distance>0.0145</distance>
						<time>10</time>
						<formattedTime>00:00:10</formattedTime>
						<attributes>0</attributes>
						<turnType>2</turnType>
						<direction>4</direction>
						<narrative/>
						<directionName>South</directionName>
						<index>43</index>
						<streets/>
						<signs/>
						<iconUrl><![CDATA[http://content.mapquest.com/mqsite/turnsigns/rs_right_sm.gif]]></iconUrl>
						<linkIds/>
						<mapUrl><![CDATA[http://open.mapquestapi.com/staticmap/v4/getmap?type=map&size=225,160&pois=purple-45,51.387462,-1.0352459999999999,0,0|purple-46,51.387350999999995,-1.035181,0,0|&center=51.3874065,-1.0352134999999998&zoom=15&key=Kmjtd%7Cluu7n162n1%2C22%3Do5-h61wh&rand=460162000&session=500bdf3c-0320-000b-02b7-6896-002655800398]]></mapUrl>
					</maneuver>
					<maneuver>
						<startPoint>
							<lat>51.3874</lat>
							<lng>-1.0352</lng>
						</startPoint>
						<maneuverNotes/>
						<distance>0.3235</distance>
						<time>147</time>
						<formattedTime>00:02:27</formattedTime>
						<attributes>0</attributes>
						<turnType>6</turnType>
						<direction>8</direction>
						<narrative/>
						<directionName>East</directionName>
						<index>44</index>
						<streets/>
						<signs/>
						<iconUrl><![CDATA[http://content.mapquest.com/mqsite/turnsigns/rs_left_sm.gif]]></iconUrl>
						<linkIds/>
						<mapUrl><![CDATA[http://open.mapquestapi.com/staticmap/v4/getmap?type=map&size=225,160&pois=purple-46,51.387350999999995,-1.035181,0,0|purple-47,51.387054,-1.031582,0,0|&center=51.3872025,-1.0333815&zoom=13&key=Kmjtd%7Cluu7n162n1%2C22%3Do5-h61wh&rand=460162000&session=500bdf3c-0320-000b-02b7-6896-002655800398]]></mapUrl>
					</maneuver>
					<maneuver>
						<startPoint/>
						<maneuverNotes/>
						<distance>0.0</distance>
						<time>0</time>
						<formattedTime>00:00:00</formattedTime>
						<attributes>0</attributes>
						<turnType>-1</turnType>
						<direction>0</direction>
						<narrative/>
						<directionName/>
						<index>45</index>
						<streets/>
						<signs/>
						<linkIds/>
						<mapUrl><![CDATA[]]></mapUrl>
					</maneuver>
				</maneuvers>
				<hasTollRoad>false</hasTollRoad>
				<hasFerry>false</hasFerry>
				<hasHighway>false</hasHighway>
				<hasSeasonalClosure>false</hasSeasonalClosure>
				<hasUnpaved>false</hasUnpaved>
				<hasCountryCross>false</hasCountryCross>
			</leg>
		</legs>
		<hasTollRoad>false</hasTollRoad>
		<hasFerry>false</hasFerry>
		<hasHighway>false</hasHighway>
		<hasSeasonalClosure>false</hasSeasonalClosure>
		<hasUnpaved>false</hasUnpaved>
		<hasCountryCross>false</hasCountryCross>
		<locations>
			<location>
				<street/>
				<adminArea5 type="City">Reading</adminArea5>
				<adminArea3 type="State">England</adminArea3>
				<adminArea4 type="County">Reading</adminArea4>
				<postalCode>RG1 1TT</postalCode>
				<adminArea1 type="Country">United Kingdom</adminArea1>
				<geocodeQuality>ZIP</geocodeQuality>
				<geocodeQualityCode>Z1XAA</geocodeQualityCode>
				<dragPoint>false</dragPoint>
				<sideOfStreet>N</sideOfStreet>
				<displayLatLng>
					<latLng>
						<lat>51.455398</lat>
						<lng>-0.9742</lng>
					</latLng>
				</displayLatLng>
				<linkId>53444</linkId>
				<type>s</type>
				<latLng>
					<lat>51.4554</lat>
					<lng>-0.9742</lng>
				</latLng>
				<DATASET_PLEASE_REVERT/>
			</location>
			<location>
				<street/>
				<adminArea5 type="City">Shinfield</adminArea5>
				<adminArea3 type="State">England</adminArea3>
				<adminArea4 type="County">Wokingham</adminArea4>
				<postalCode/>
				<adminArea1 type="Country">United Kingdom</adminArea1>
				<geocodeQuality>ZIP</geocodeQuality>
				<geocodeQualityCode>Z1XAA</geocodeQualityCode>
				<dragPoint>false</dragPoint>
				<sideOfStreet>N</sideOfStreet>
				<displayLatLng>
					<latLng>
						<lat>51.4388</lat>
						<lng>-0.9409</lng>
					</latLng>
				</displayLatLng>
				<linkId>2569439</linkId>
				<type>s</type>
				<latLng>
					<lat>51.4388</lat>
					<lng>-0.9409</lng>
				</latLng>
				<DATASET_PLEASE_REVERT/>
			</location>
			<location>
				<street/>
				<adminArea5 type="City">Beech Hill</adminArea5>
				<adminArea3 type="State">England</adminArea3>
				<adminArea4 type="County">Berkshire</adminArea4>
				<postalCode/>
				<adminArea1 type="Country">United Kingdom</adminArea1>
				<geocodeQuality>ZIP</geocodeQuality>
				<geocodeQualityCode>Z1XAA</geocodeQualityCode>
				<dragPoint>false</dragPoint>
				<sideOfStreet>N</sideOfStreet>
				<displayLatLng>
					<latLng>
						<lat>51.376499</lat>
						<lng>-1.003</lng>
					</latLng>
				</displayLatLng>
				<linkId>56034710</linkId>
				<type>s</type>
				<latLng>
					<lat>51.3765</lat>
					<lng>-1.002999</lng>
				</latLng>
				<DATASET_PLEASE_REVERT/>
			</location>
			<location>
				<street>New Road</street>
				<adminArea5 type="City">Burghfield</adminArea5>
				<adminArea3 type="State">England</adminArea3>
				<adminArea4 type="County">Berkshire</adminArea4>
				<postalCode/>
				<adminArea1 type="Country">United Kingdom</adminArea1>
				<geocodeQuality>ADDRESS</geocodeQuality>
				<geocodeQualityCode>L1AAA</geocodeQualityCode>
				<dragPoint>false</dragPoint>
				<sideOfStreet>N</sideOfStreet>
				<displayLatLng>
					<latLng>
						<lat>51.38713</lat>
						<lng>-1.031599</lng>
					</latLng>
				</displayLatLng>
				<linkId>44023405</linkId>
				<type>s</type>
				<latLng>
					<lat>51.38713</lat>
					<lng>-1.0316</lng>
				</latLng>
				<DATASET_PLEASE_REVERT/>
			</location>
		</locations>
		<locationSequence>0,2,1,3</locationSequence>
		<computedWaypoints/>
		<shape>
			<shapePoints>
				<latLng>
					<lat>51.454856</lat>
					<lng>-0.974785</lng>
				</latLng>
				<latLng>
					<lat>51.455226</lat>
					<lng>-0.97513</lng>
				</latLng>
				<latLng>
					<lat>51.455444</lat>
					<lng>-0.975305</lng>
				</latLng>
				<latLng>
					<lat>51.455444</lat>
					<lng>-0.975305</lng>
				</latLng>
				<latLng>
					<lat>51.456222</lat>
					<lng>-0.975956</lng>
				</latLng>
				<latLng>
					<lat>51.456222</lat>
					<lng>-0.975956</lng>
				</latLng>
				<latLng>
					<lat>51.456344</lat>
					<lng>-0.976082</lng>
				</latLng>
				<latLng>
					<lat>51.456516</lat>
					<lng>-0.976221</lng>
				</latLng>
				<latLng>
					<lat>51.456569</lat>
					<lng>-0.976347</lng>
				</latLng>
				<latLng>
					<lat>51.456569</lat>
					<lng>-0.976347</lng>
				</latLng>
				<latLng>
					<lat>51.456504</lat>
					<lng>-0.977154</lng>
				</latLng>
				<latLng>
					<lat>51.456398</lat>
					<lng>-0.977442</lng>
				</latLng>
				<latLng>
					<lat>51.456398</lat>
					<lng>-0.977442</lng>
				</latLng>
				<latLng>
					<lat>51.45634</lat>
					<lng>-0.977518</lng>
				</latLng>
				<latLng>
					<lat>51.45618</lat>
					<lng>-0.977815</lng>
				</latLng>
				<latLng>
					<lat>51.456142</lat>
					<lng>-0.977927</lng>
				</latLng>
				<latLng>
					<lat>51.455867</lat>
					<lng>-0.978209</lng>
				</latLng>
				<latLng>
					<lat>51.455692</lat>
					<lng>-0.978361</lng>
				</latLng>
				<latLng>
					<lat>51.455471</lat>
					<lng>-0.978501</lng>
				</latLng>
				<latLng>
					<lat>51.455314</lat>
					<lng>-0.978568</lng>
				</latLng>
				<latLng>
					<lat>51.454921</lat>
					<lng>-0.978739</lng>
				</latLng>
				<latLng>
					<lat>51.454738</lat>
					<lng>-0.978757</lng>
				</latLng>
				<latLng>
					<lat>51.454341</lat>
					<lng>-0.978706</lng>
				</latLng>
				<latLng>
					<lat>51.453762</lat>
					<lng>-0.978537</lng>
				</latLng>
				<latLng>
					<lat>51.453311</lat>
					<lng>-0.978322</lng>
				</latLng>
				<latLng>
					<lat>51.452007</lat>
					<lng>-0.977301</lng>
				</latLng>
				<latLng>
					<lat>51.451</lat>
					<lng>-0.976468</lng>
				</latLng>
				<latLng>
					<lat>51.450809</lat>
					<lng>-0.97614</lng>
				</latLng>
				<latLng>
					<lat>51.450626</lat>
					<lng>-0.975718</lng>
				</latLng>
				<latLng>
					<lat>51.450519</lat>
					<lng>-0.975328</lng>
				</latLng>
				<latLng>
					<lat>51.450481</lat>
					<lng>-0.97499</lng>
				</latLng>
				<latLng>
					<lat>51.450485</lat>
					<lng>-0.974555</lng>
				</latLng>
				<latLng>
					<lat>51.450565</lat>
					<lng>-0.974097</lng>
				</latLng>
				<latLng>
					<lat>51.450565</lat>
					<lng>-0.974097</lng>
				</latLng>
				<latLng>
					<lat>51.451511</lat>
					<lng>-0.972307</lng>
				</latLng>
				<latLng>
					<lat>51.451652</lat>
					<lng>-0.97211</lng>
				</latLng>
				<latLng>
					<lat>51.451652</lat>
					<lng>-0.97211</lng>
				</latLng>
				<latLng>
					<lat>51.451789</lat>
					<lng>-0.972118</lng>
				</latLng>
				<latLng>
					<lat>51.451961</lat>
					<lng>-0.972011</lng>
				</latLng>
				<latLng>
					<lat>51.452049</lat>
					<lng>-0.971762</lng>
				</latLng>
				<latLng>
					<lat>51.452011</lat>
					<lng>-0.971476</lng>
				</latLng>
				<latLng>
					<lat>51.451908</lat>
					<lng>-0.971212</lng>
				</latLng>
				<latLng>
					<lat>51.451908</lat>
					<lng>-0.971212</lng>
				</latLng>
				<latLng>
					<lat>51.452186</lat>
					<lng>-0.970372</lng>
				</latLng>
				<latLng>
					<lat>51.452388</lat>
					<lng>-0.96991</lng>
				</latLng>
				<latLng>
					<lat>51.452682</lat>
					<lng>-0.969331</lng>
				</latLng>
				<latLng>
					<lat>51.452842</lat>
					<lng>-0.969079</lng>
				</latLng>
				<latLng>
					<lat>51.453067</lat>
					<lng>-0.968657</lng>
				</latLng>
				<latLng>
					<lat>51.453083</lat>
					<lng>-0.968586</lng>
				</latLng>
				<latLng>
					<lat>51.45306</lat>
					<lng>-0.968463</lng>
				</latLng>
				<latLng>
					<lat>51.452938</lat>
					<lng>-0.968361</lng>
				</latLng>
				<latLng>
					<lat>51.452938</lat>
					<lng>-0.968361</lng>
				</latLng>
				<latLng>
					<lat>51.452785</lat>
					<lng>-0.968321</lng>
				</latLng>
				<latLng>
					<lat>51.452621</lat>
					<lng>-0.96829</lng>
				</latLng>
				<latLng>
					<lat>51.452365</lat>
					<lng>-0.968189</lng>
				</latLng>
				<latLng>
					<lat>51.452022</lat>
					<lng>-0.967998</lng>
				</latLng>
				<latLng>
					<lat>51.451549</lat>
					<lng>-0.96771</lng>
				</latLng>
				<latLng>
					<lat>51.450984</lat>
					<lng>-0.967352</lng>
				</latLng>
				<latLng>
					<lat>51.450428</lat>
					<lng>-0.96697</lng>
				</latLng>
				<latLng>
					<lat>51.450061</lat>
					<lng>-0.966696</lng>
				</latLng>
				<latLng>
					<lat>51.449794</lat>
					<lng>-0.966561</lng>
				</latLng>
				<latLng>
					<lat>51.449638</lat>
					<lng>-0.966507</lng>
				</latLng>
				<latLng>
					<lat>51.449272</lat>
					<lng>-0.966422</lng>
				</latLng>
				<latLng>
					<lat>51.448909</lat>
					<lng>-0.966399</lng>
				</latLng>
				<latLng>
					<lat>51.448291</lat>
					<lng>-0.966301</lng>
				</latLng>
				<latLng>
					<lat>51.448215</lat>
					<lng>-0.9663</lng>
				</latLng>
				<latLng>
					<lat>51.447952</lat>
					<lng>-0.966256</lng>
				</latLng>
				<latLng>
					<lat>51.447055</lat>
					<lng>-0.966099</lng>
				</latLng>
				<latLng>
					<lat>51.446762</lat>
					<lng>-0.966036</lng>
				</latLng>
				<latLng>
					<lat>51.44651</lat>
					<lng>-0.965956</lng>
				</latLng>
				<latLng>
					<lat>51.445716</lat>
					<lng>-0.965682</lng>
				</latLng>
				<latLng>
					<lat>51.444793</lat>
					<lng>-0.96524</lng>
				</latLng>
				<latLng>
					<lat>51.444675</lat>
					<lng>-0.965174</lng>
				</latLng>
				<latLng>
					<lat>51.44448</lat>
					<lng>-0.96504</lng>
				</latLng>
				<latLng>
					<lat>51.444461</lat>
					<lng>-0.964946</lng>
				</latLng>
				<latLng>
					<lat>51.444408</lat>
					<lng>-0.964878</lng>
				</latLng>
				<latLng>
					<lat>51.444374</lat>
					<lng>-0.964865</lng>
				</latLng>
				<latLng>
					<lat>51.444351</lat>
					<lng>-0.964698</lng>
				</latLng>
				<latLng>
					<lat>51.444343</lat>
					<lng>-0.964392</lng>
				</latLng>
				<latLng>
					<lat>51.444324</lat>
					<lng>-0.963418</lng>
				</latLng>
				<latLng>
					<lat>51.444282</lat>
					<lng>-0.962737</lng>
				</latLng>
				<latLng>
					<lat>51.444118</lat>
					<lng>-0.961623</lng>
				</latLng>
				<latLng>
					<lat>51.444023</lat>
					<lng>-0.96104</lng>
				</latLng>
				<latLng>
					<lat>51.443939</lat>
					<lng>-0.960509</lng>
				</latLng>
				<latLng>
					<lat>51.443786</lat>
					<lng>-0.959739</lng>
				</latLng>
				<latLng>
					<lat>51.443733</lat>
					<lng>-0.959478</lng>
				</latLng>
				<latLng>
					<lat>51.443626</lat>
					<lng>-0.958925</lng>
				</latLng>
				<latLng>
					<lat>51.443462</lat>
					<lng>-0.95806</lng>
				</latLng>
				<latLng>
					<lat>51.443386</lat>
					<lng>-0.957647</lng>
				</latLng>
				<latLng>
					<lat>51.443344</lat>
					<lng>-0.957436</lng>
				</latLng>
				<latLng>
					<lat>51.443294</lat>
					<lng>-0.957194</lng>
				</latLng>
				<latLng>
					<lat>51.443122</lat>
					<lng>-0.956349</lng>
				</latLng>
				<latLng>
					<lat>51.442691</lat>
					<lng>-0.954868</lng>
				</latLng>
				<latLng>
					<lat>51.442619</lat>
					<lng>-0.954612</lng>
				</latLng>
				<latLng>
					<lat>51.442562</lat>
					<lng>-0.954499</lng>
				</latLng>
				<latLng>
					<lat>51.442237</lat>
					<lng>-0.95398</lng>
				</latLng>
				<latLng>
					<lat>51.442054</lat>
					<lng>-0.953759</lng>
				</latLng>
				<latLng>
					<lat>51.44194</lat>
					<lng>-0.953616</lng>
				</latLng>
				<latLng>
					<lat>51.441688</lat>
					<lng>-0.953338</lng>
				</latLng>
				<latLng>
					<lat>51.441616</lat>
					<lng>-0.953265</lng>
				</latLng>
				<latLng>
					<lat>51.440441</lat>
					<lng>-0.952049</lng>
				</latLng>
				<latLng>
					<lat>51.439529</lat>
					<lng>-0.951093</lng>
				</latLng>
				<latLng>
					<lat>51.439125</lat>
					<lng>-0.950802</lng>
				</latLng>
				<latLng>
					<lat>51.439125</lat>
					<lng>-0.950802</lng>
				</latLng>
				<latLng>
					<lat>51.439205</lat>
					<lng>-0.948861</lng>
				</latLng>
				<latLng>
					<lat>51.439189</lat>
					<lng>-0.94853</lng>
				</latLng>
				<latLng>
					<lat>51.439117</lat>
					<lng>-0.948297</lng>
				</latLng>
				<latLng>
					<lat>51.438957</lat>
					<lng>-0.947942</lng>
				</latLng>
				<latLng>
					<lat>51.43872</lat>
					<lng>-0.947592</lng>
				</latLng>
				<latLng>
					<lat>51.437583</lat>
					<lng>-0.946299</lng>
				</latLng>
				<latLng>
					<lat>51.437286</lat>
					<lng>-0.945774</lng>
				</latLng>
				<latLng>
					<lat>51.437286</lat>
					<lng>-0.945774</lng>
				</latLng>
				<latLng>
					<lat>51.437801</lat>
					<lng>-0.945263</lng>
				</latLng>
				<latLng>
					<lat>51.437801</lat>
					<lng>-0.945263</lng>
				</latLng>
				<latLng>
					<lat>51.437728</lat>
					<lng>-0.94476</lng>
				</latLng>
				<latLng>
					<lat>51.437454</lat>
					<lng>-0.943557</lng>
				</latLng>
				<latLng>
					<lat>51.437454</lat>
					<lng>-0.943557</lng>
				</latLng>
				<latLng>
					<lat>51.437458</lat>
					<lng>-0.94335</lng>
				</latLng>
				<latLng>
					<lat>51.437507</lat>
					<lng>-0.943188</lng>
				</latLng>
				<latLng>
					<lat>51.437583</lat>
					<lng>-0.943077</lng>
				</latLng>
				<latLng>
					<lat>51.437652</lat>
					<lng>-0.943009</lng>
				</latLng>
				<latLng>
					<lat>51.437984</lat>
					<lng>-0.942812</lng>
				</latLng>
				<latLng>
					<lat>51.438053</lat>
					<lng>-0.942713</lng>
				</latLng>
				<latLng>
					<lat>51.438053</lat>
					<lng>-0.942713</lng>
				</latLng>
				<latLng>
					<lat>51.438095</lat>
					<lng>-0.942586</lng>
				</latLng>
				<latLng>
					<lat>51.438102</lat>
					<lng>-0.942376</lng>
				</latLng>
				<latLng>
					<lat>51.437999</lat>
					<lng>-0.941932</lng>
				</latLng>
				<latLng>
					<lat>51.437999</lat>
					<lng>-0.941932</lng>
				</latLng>
				<latLng>
					<lat>51.438362</lat>
					<lng>-0.941738</lng>
				</latLng>
				<latLng>
					<lat>51.438915</lat>
					<lng>-0.941437</lng>
				</latLng>
				<latLng>
					<lat>51.438915</lat>
					<lng>-0.941437</lng>
				</latLng>
				<latLng>
					<lat>51.438858</lat>
					<lng>-0.941154</lng>
				</latLng>
				<latLng>
					<lat>51.438796</lat>
					<lng>-0.9409</lng>
				</latLng>
				<latLng>
					<lat>51.438796</lat>
					<lng>-0.9409</lng>
				</latLng>
				<latLng>
					<lat>51.4388</lat>
					<lng>-0.940896</lng>
				</latLng>
				<latLng>
					<lat>51.4388</lat>
					<lng>-0.940896</lng>
				</latLng>
				<latLng>
					<lat>51.438796</lat>
					<lng>-0.9409</lng>
				</latLng>
				<latLng>
					<lat>51.438796</lat>
					<lng>-0.9409</lng>
				</latLng>
				<latLng>
					<lat>51.438858</lat>
					<lng>-0.941154</lng>
				</latLng>
				<latLng>
					<lat>51.438915</lat>
					<lng>-0.941437</lng>
				</latLng>
				<latLng>
					<lat>51.438915</lat>
					<lng>-0.941437</lng>
				</latLng>
				<latLng>
					<lat>51.438362</lat>
					<lng>-0.941738</lng>
				</latLng>
				<latLng>
					<lat>51.437999</lat>
					<lng>-0.941932</lng>
				</latLng>
				<latLng>
					<lat>51.437999</lat>
					<lng>-0.941932</lng>
				</latLng>
				<latLng>
					<lat>51.438102</lat>
					<lng>-0.942376</lng>
				</latLng>
				<latLng>
					<lat>51.438095</lat>
					<lng>-0.942586</lng>
				</latLng>
				<latLng>
					<lat>51.438053</lat>
					<lng>-0.942713</lng>
				</latLng>
				<latLng>
					<lat>51.438053</lat>
					<lng>-0.942713</lng>
				</latLng>
				<latLng>
					<lat>51.437984</lat>
					<lng>-0.942812</lng>
				</latLng>
				<latLng>
					<lat>51.437652</lat>
					<lng>-0.943009</lng>
				</latLng>
				<latLng>
					<lat>51.437583</lat>
					<lng>-0.943077</lng>
				</latLng>
				<latLng>
					<lat>51.437507</lat>
					<lng>-0.943188</lng>
				</latLng>
				<latLng>
					<lat>51.437458</lat>
					<lng>-0.94335</lng>
				</latLng>
				<latLng>
					<lat>51.437454</lat>
					<lng>-0.943557</lng>
				</latLng>
				<latLng>
					<lat>51.437454</lat>
					<lng>-0.943557</lng>
				</latLng>
				<latLng>
					<lat>51.437728</lat>
					<lng>-0.94476</lng>
				</latLng>
				<latLng>
					<lat>51.437801</lat>
					<lng>-0.945263</lng>
				</latLng>
				<latLng>
					<lat>51.437801</lat>
					<lng>-0.945263</lng>
				</latLng>
				<latLng>
					<lat>51.437286</lat>
					<lng>-0.945774</lng>
				</latLng>
				<latLng>
					<lat>51.437286</lat>
					<lng>-0.945774</lng>
				</latLng>
				<latLng>
					<lat>51.437583</lat>
					<lng>-0.946299</lng>
				</latLng>
				<latLng>
					<lat>51.43872</lat>
					<lng>-0.947592</lng>
				</latLng>
				<latLng>
					<lat>51.438957</lat>
					<lng>-0.947942</lng>
				</latLng>
				<latLng>
					<lat>51.439117</lat>
					<lng>-0.948297</lng>
				</latLng>
				<latLng>
					<lat>51.439189</lat>
					<lng>-0.94853</lng>
				</latLng>
				<latLng>
					<lat>51.439205</lat>
					<lng>-0.948861</lng>
				</latLng>
				<latLng>
					<lat>51.439125</lat>
					<lng>-0.950802</lng>
				</latLng>
				<latLng>
					<lat>51.439125</lat>
					<lng>-0.950802</lng>
				</latLng>
				<latLng>
					<lat>51.438453</lat>
					<lng>-0.950582</lng>
				</latLng>
				<latLng>
					<lat>51.438144</lat>
					<lng>-0.950479</lng>
				</latLng>
				<latLng>
					<lat>51.43645</lat>
					<lng>-0.949603</lng>
				</latLng>
				<latLng>
					<lat>51.43375</lat>
					<lng>-0.948369</lng>
				</latLng>
				<latLng>
					<lat>51.433238</lat>
					<lng>-0.948035</lng>
				</latLng>
				<latLng>
					<lat>51.432098</lat>
					<lng>-0.946977</lng>
				</latLng>
				<latLng>
					<lat>51.43177</lat>
					<lng>-0.946816</lng>
				</latLng>
				<latLng>
					<lat>51.431327</lat>
					<lng>-0.9466</lng>
				</latLng>
				<latLng>
					<lat>51.430812</lat>
					<lng>-0.946357</lng>
				</latLng>
				<latLng>
					<lat>51.429569</lat>
					<lng>-0.946116</lng>
				</latLng>
				<latLng>
					<lat>51.428829</lat>
					<lng>-0.946043</lng>
				</latLng>
				<latLng>
					<lat>51.428726</lat>
					<lng>-0.946033</lng>
				</latLng>
				<latLng>
					<lat>51.428318</lat>
					<lng>-0.946106</lng>
				</latLng>
				<latLng>
					<lat>51.428054</lat>
					<lng>-0.946183</lng>
				</latLng>
				<latLng>
					<lat>51.428001</lat>
					<lng>-0.946213</lng>
				</latLng>
				<latLng>
					<lat>51.427722</lat>
					<lng>-0.946361</lng>
				</latLng>
				<latLng>
					<lat>51.427555</lat>
					<lng>-0.946443</lng>
				</latLng>
				<latLng>
					<lat>51.427379</lat>
					<lng>-0.946528</lng>
				</latLng>
				<latLng>
					<lat>51.427059</lat>
					<lng>-0.94665</lng>
				</latLng>
				<latLng>
					<lat>51.426967</lat>
					<lng>-0.94669</lng>
				</latLng>
				<latLng>
					<lat>51.426696</lat>
					<lng>-0.946783</lng>
				</latLng>
				<latLng>
					<lat>51.426563</lat>
					<lng>-0.94678</lng>
				</latLng>
				<latLng>
					<lat>51.426002</lat>
					<lng>-0.946757</lng>
				</latLng>
				<latLng>
					<lat>51.425514</lat>
					<lng>-0.946605</lng>
				</latLng>
				<latLng>
					<lat>51.425365</lat>
					<lng>-0.946528</lng>
				</latLng>
				<latLng>
					<lat>51.424613</lat>
					<lng>-0.946262</lng>
				</latLng>
				<latLng>
					<lat>51.424411</lat>
					<lng>-0.94624</lng>
				</latLng>
				<latLng>
					<lat>51.423778</lat>
					<lng>-0.946276</lng>
				</latLng>
				<latLng>
					<lat>51.423286</lat>
					<lng>-0.946461</lng>
				</latLng>
				<latLng>
					<lat>51.422554</lat>
					<lng>-0.946744</lng>
				</latLng>
				<latLng>
					<lat>51.422088</lat>
					<lng>-0.946918</lng>
				</latLng>
				<latLng>
					<lat>51.420799</lat>
					<lng>-0.947367</lng>
				</latLng>
				<latLng>
					<lat>51.420734</lat>
					<lng>-0.947395</lng>
				</latLng>
				<latLng>
					<lat>51.420085</lat>
					<lng>-0.947637</lng>
				</latLng>
				<latLng>
					<lat>51.419593</lat>
					<lng>-0.947842</lng>
				</latLng>
				<latLng>
					<lat>51.418666</lat>
					<lng>-0.948189</lng>
				</latLng>
				<latLng>
					<lat>51.418506</lat>
					<lng>-0.948248</lng>
				</latLng>
				<latLng>
					<lat>51.418201</lat>
					<lng>-0.948368</lng>
				</latLng>
				<latLng>
					<lat>51.417198</lat>
					<lng>-0.948728</lng>
				</latLng>
				<latLng>
					<lat>51.416893</lat>
					<lng>-0.948845</lng>
				</latLng>
				<latLng>
					<lat>51.416175</lat>
					<lng>-0.94832</lng>
				</latLng>
				<latLng>
					<lat>51.416175</lat>
					<lng>-0.94832</lng>
				</latLng>
				<latLng>
					<lat>51.416038</lat>
					<lng>-0.948184</lng>
				</latLng>
				<latLng>
					<lat>51.415828</lat>
					<lng>-0.948167</lng>
				</latLng>
				<latLng>
					<lat>51.415641</lat>
					<lng>-0.948418</lng>
				</latLng>
				<latLng>
					<lat>51.41563</lat>
					<lng>-0.948539</lng>
				</latLng>
				<latLng>
					<lat>51.415531</lat>
					<lng>-0.948822</lng>
				</latLng>
				<latLng>
					<lat>51.415416</lat>
					<lng>-0.949065</lng>
				</latLng>
				<latLng>
					<lat>51.415218</lat>
					<lng>-0.949292</lng>
				</latLng>
				<latLng>
					<lat>51.415031</lat>
					<lng>-0.9494</lng>
				</latLng>
				<latLng>
					<lat>51.41481</lat>
					<lng>-0.949455</lng>
				</latLng>
				<latLng>
					<lat>51.414165</lat>
					<lng>-0.94958</lng>
				</latLng>
				<latLng>
					<lat>51.413692</lat>
					<lng>-0.949674</lng>
				</latLng>
				<latLng>
					<lat>51.412639</lat>
					<lng>-0.949909</lng>
				</latLng>
				<latLng>
					<lat>51.41172</lat>
					<lng>-0.950173</lng>
				</latLng>
				<latLng>
					<lat>51.41172</lat>
					<lng>-0.950173</lng>
				</latLng>
				<latLng>
					<lat>51.41175</lat>
					<lng>-0.950708</lng>
				</latLng>
				<latLng>
					<lat>51.411705</lat>
					<lng>-0.95152</lng>
				</latLng>
				<latLng>
					<lat>51.411468</lat>
					<lng>-0.952732</lng>
				</latLng>
				<latLng>
					<lat>51.411453</lat>
					<lng>-0.95305</lng>
				</latLng>
				<latLng>
					<lat>51.411449</lat>
					<lng>-0.95323</lng>
				</latLng>
				<latLng>
					<lat>51.411468</lat>
					<lng>-0.953526</lng>
				</latLng>
				<latLng>
					<lat>51.41151</lat>
					<lng>-0.953899</lng>
				</latLng>
				<latLng>
					<lat>51.411712</lat>
					<lng>-0.954725</lng>
				</latLng>
				<latLng>
					<lat>51.412052</lat>
					<lng>-0.956008</lng>
				</latLng>
				<latLng>
					<lat>51.412086</lat>
					<lng>-0.956197</lng>
				</latLng>
				<latLng>
					<lat>51.412075</lat>
					<lng>-0.956326</lng>
				</latLng>
				<latLng>
					<lat>51.41204</lat>
					<lng>-0.956435</lng>
				</latLng>
				<latLng>
					<lat>51.411956</lat>
					<lng>-0.956587</lng>
				</latLng>
				<latLng>
					<lat>51.411842</lat>
					<lng>-0.956736</lng>
				</latLng>
				<latLng>
					<lat>51.411502</lat>
					<lng>-0.957089</lng>
				</latLng>
				<latLng>
					<lat>51.411357</lat>
					<lng>-0.957152</lng>
				</latLng>
				<latLng>
					<lat>51.41119</lat>
					<lng>-0.957152</lng>
				</latLng>
				<latLng>
					<lat>51.411067</lat>
					<lng>-0.957183</lng>
				</latLng>
				<latLng>
					<lat>51.41101</lat>
					<lng>-0.95722</lng>
				</latLng>
				<latLng>
					<lat>51.41101</lat>
					<lng>-0.95722</lng>
				</latLng>
				<latLng>
					<lat>51.410961</lat>
					<lng>-0.957261</lng>
				</latLng>
				<latLng>
					<lat>51.410831</lat>
					<lng>-0.957467</lng>
				</latLng>
				<latLng>
					<lat>51.41019</lat>
					<lng>-0.958742</lng>
				</latLng>
				<latLng>
					<lat>51.410095</lat>
					<lng>-0.958944</lng>
				</latLng>
				<latLng>
					<lat>51.40998</lat>
					<lng>-0.959253</lng>
				</latLng>
				<latLng>
					<lat>51.409896</lat>
					<lng>-0.95958</lng>
				</latLng>
				<latLng>
					<lat>51.409755</lat>
					<lng>-0.960614</lng>
				</latLng>
				<latLng>
					<lat>51.40969</lat>
					<lng>-0.960946</lng>
				</latLng>
				<latLng>
					<lat>51.409595</lat>
					<lng>-0.961233</lng>
				</latLng>
				<latLng>
					<lat>51.409458</lat>
					<lng>-0.961516</lng>
				</latLng>
				<latLng>
					<lat>51.408817</lat>
					<lng>-0.962552</lng>
				</latLng>
				<latLng>
					<lat>51.407951</lat>
					<lng>-0.963945</lng>
				</latLng>
				<latLng>
					<lat>51.407669</lat>
					<lng>-0.964483</lng>
				</latLng>
				<latLng>
					<lat>51.407363</lat>
					<lng>-0.965219</lng>
				</latLng>
				<latLng>
					<lat>51.406211</lat>
					<lng>-0.968455</lng>
				</latLng>
				<latLng>
					<lat>51.405723</lat>
					<lng>-0.969937</lng>
				</latLng>
				<latLng>
					<lat>51.405441</lat>
					<lng>-0.971189</lng>
				</latLng>
				<latLng>
					<lat>51.405258</lat>
					<lng>-0.971701</lng>
				</latLng>
				<latLng>
					<lat>51.404998</lat>
					<lng>-0.972531</lng>
				</latLng>
				<latLng>
					<lat>51.404811</lat>
					<lng>-0.97314</lng>
				</latLng>
				<latLng>
					<lat>51.404758</lat>
					<lng>-0.973398</lng>
				</latLng>
				<latLng>
					<lat>51.404758</lat>
					<lng>-0.973398</lng>
				</latLng>
				<latLng>
					<lat>51.404659</lat>
					<lng>-0.973424</lng>
				</latLng>
				<latLng>
					<lat>51.404506</lat>
					<lng>-0.973411</lng>
				</latLng>
				<latLng>
					<lat>51.403839</lat>
					<lng>-0.973361</lng>
				</latLng>
				<latLng>
					<lat>51.403366</lat>
					<lng>-0.973307</lng>
				</latLng>
				<latLng>
					<lat>51.402816</lat>
					<lng>-0.973213</lng>
				</latLng>
				<latLng>
					<lat>51.402561</lat>
					<lng>-0.973149</lng>
				</latLng>
				<latLng>
					<lat>51.401824</lat>
					<lng>-0.972911</lng>
				</latLng>
				<latLng>
					<lat>51.401119</lat>
					<lng>-0.972702</lng>
				</latLng>
				<latLng>
					<lat>51.400794</lat>
					<lng>-0.972635</lng>
				</latLng>
				<latLng>
					<lat>51.40007</lat>
					<lng>-0.972486</lng>
				</latLng>
				<latLng>
					<lat>51.399898</lat>
					<lng>-0.972463</lng>
				</latLng>
				<latLng>
					<lat>51.399604</lat>
					<lng>-0.972432</lng>
				</latLng>
				<latLng>
					<lat>51.399433</lat>
					<lng>-0.972436</lng>
				</latLng>
				<latLng>
					<lat>51.399276</lat>
					<lng>-0.972481</lng>
				</latLng>
				<latLng>
					<lat>51.398822</lat>
					<lng>-0.972657</lng>
				</latLng>
				<latLng>
					<lat>51.398639</lat>
					<lng>-0.972742</lng>
				</latLng>
				<latLng>
					<lat>51.398097</lat>
					<lng>-0.972922</lng>
				</latLng>
				<latLng>
					<lat>51.39775</lat>
					<lng>-0.97301</lng>
				</latLng>
				<latLng>
					<lat>51.396629</lat>
					<lng>-0.973258</lng>
				</latLng>
				<latLng>
					<lat>51.395889</lat>
					<lng>-0.973442</lng>
				</latLng>
				<latLng>
					<lat>51.395572</lat>
					<lng>-0.973517</lng>
				</latLng>
				<latLng>
					<lat>51.394321</lat>
					<lng>-0.973819</lng>
				</latLng>
				<latLng>
					<lat>51.394237</lat>
					<lng>-0.973842</lng>
				</latLng>
				<latLng>
					<lat>51.39392</lat>
					<lng>-0.973917</lng>
				</latLng>
				<latLng>
					<lat>51.392982</lat>
					<lng>-0.974114</lng>
				</latLng>
				<latLng>
					<lat>51.39228</lat>
					<lng>-0.974277</lng>
				</latLng>
				<latLng>
					<lat>51.391605</lat>
					<lng>-0.974425</lng>
				</latLng>
				<latLng>
					<lat>51.390987</lat>
					<lng>-0.974556</lng>
				</latLng>
				<latLng>
					<lat>51.390766</lat>
					<lng>-0.974573</lng>
				</latLng>
				<latLng>
					<lat>51.390766</lat>
					<lng>-0.974573</lng>
				</latLng>
				<latLng>
					<lat>51.390415</lat>
					<lng>-0.975512</lng>
				</latLng>
				<latLng>
					<lat>51.39011</lat>
					<lng>-0.976063</lng>
				</latLng>
				<latLng>
					<lat>51.389823</lat>
					<lng>-0.97645</lng>
				</latLng>
				<latLng>
					<lat>51.389656</lat>
					<lng>-0.976634</lng>
				</latLng>
				<latLng>
					<lat>51.387447</lat>
					<lng>-0.979304</lng>
				</latLng>
				<latLng>
					<lat>51.385501</lat>
					<lng>-0.981387</lng>
				</latLng>
				<latLng>
					<lat>51.38541</lat>
					<lng>-0.98154</lng>
				</latLng>
				<latLng>
					<lat>51.385124</lat>
					<lng>-0.982019</lng>
				</latLng>
				<latLng>
					<lat>51.385051</lat>
					<lng>-0.98214</lng>
				</latLng>
				<latLng>
					<lat>51.384304</lat>
					<lng>-0.9843</lng>
				</latLng>
				<latLng>
					<lat>51.384025</lat>
					<lng>-0.985696</lng>
				</latLng>
				<latLng>
					<lat>51.383659</lat>
					<lng>-0.987918</lng>
				</latLng>
				<latLng>
					<lat>51.383476</lat>
					<lng>-0.988901</lng>
				</latLng>
				<latLng>
					<lat>51.383419</lat>
					<lng>-0.989264</lng>
				</latLng>
				<latLng>
					<lat>51.38322</lat>
					<lng>-0.990018</lng>
				</latLng>
				<latLng>
					<lat>51.382724</lat>
					<lng>-0.991047</lng>
				</latLng>
				<latLng>
					<lat>51.382022</lat>
					<lng>-0.992021</lng>
				</latLng>
				<latLng>
					<lat>51.381191</lat>
					<lng>-0.992793</lng>
				</latLng>
				<latLng>
					<lat>51.380386</lat>
					<lng>-0.993425</lng>
				</latLng>
				<latLng>
					<lat>51.378822</lat>
					<lng>-0.994454</lng>
				</latLng>
				<latLng>
					<lat>51.377944</lat>
					<lng>-0.995139</lng>
				</latLng>
				<latLng>
					<lat>51.377346</lat>
					<lng>-0.995491</lng>
				</latLng>
				<latLng>
					<lat>51.376388</lat>
					<lng>-0.995893</lng>
				</latLng>
				<latLng>
					<lat>51.376125</lat>
					<lng>-0.996019</lng>
				</latLng>
				<latLng>
					<lat>51.375366</lat>
					<lng>-0.996496</lng>
				</latLng>
				<latLng>
					<lat>51.375</lat>
					<lng>-0.996806</lng>
				</latLng>
				<latLng>
					<lat>51.374683</lat>
					<lng>-0.997204</lng>
				</latLng>
				<latLng>
					<lat>51.374397</lat>
					<lng>-0.997842</lng>
				</latLng>
				<latLng>
					<lat>51.374206</lat>
					<lng>-0.998229</lng>
				</latLng>
				<latLng>
					<lat>51.373916</lat>
					<lng>-0.998687</lng>
				</latLng>
				<latLng>
					<lat>51.373916</lat>
					<lng>-0.998687</lng>
				</latLng>
				<latLng>
					<lat>51.374011</lat>
					<lng>-0.998911</lng>
				</latLng>
				<latLng>
					<lat>51.374244</lat>
					<lng>-0.999759</lng>
				</latLng>
				<latLng>
					<lat>51.374385</lat>
					<lng>-1.000198</lng>
				</latLng>
				<latLng>
					<lat>51.374488</lat>
					<lng>-1.00062</lng>
				</latLng>
				<latLng>
					<lat>51.374797</lat>
					<lng>-1.001278</lng>
				</latLng>
				<latLng>
					<lat>51.374862</lat>
					<lng>-1.001525</lng>
				</latLng>
				<latLng>
					<lat>51.375015</lat>
					<lng>-1.002418</lng>
				</latLng>
				<latLng>
					<lat>51.375148</lat>
					<lng>-1.002797</lng>
				</latLng>
				<latLng>
					<lat>51.37524</lat>
					<lng>-1.002936</lng>
				</latLng>
				<latLng>
					<lat>51.375339</lat>
					<lng>-1.002997</lng>
				</latLng>
				<latLng>
					<lat>51.375442</lat>
					<lng>-1.003015</lng>
				</latLng>
				<latLng>
					<lat>51.376251</lat>
					<lng>-1.002995</lng>
				</latLng>
				<latLng>
					<lat>51.376384</lat>
					<lng>-1.002925</lng>
				</latLng>
				<latLng>
					<lat>51.376419</lat>
					<lng>-1.002897</lng>
				</latLng>
				<latLng>
					<lat>51.376419</lat>
					<lng>-1.002897</lng>
				</latLng>
				<latLng>
					<lat>51.376567</lat>
					<lng>-1.002778</lng>
				</latLng>
				<latLng>
					<lat>51.376731</lat>
					<lng>-1.002676</lng>
				</latLng>
				<latLng>
					<lat>51.377487</lat>
					<lng>-1.002305</lng>
				</latLng>
				<latLng>
					<lat>51.377876</lat>
					<lng>-1.002205</lng>
				</latLng>
				<latLng>
					<lat>51.378368</lat>
					<lng>-1.002114</lng>
				</latLng>
				<latLng>
					<lat>51.378887</lat>
					<lng>-1.002066</lng>
				</latLng>
				<latLng>
					<lat>51.381015</lat>
					<lng>-1.002097</lng>
				</latLng>
				<latLng>
					<lat>51.381603</lat>
					<lng>-1.002089</lng>
				</latLng>
				<latLng>
					<lat>51.381603</lat>
					<lng>-1.002089</lng>
				</latLng>
				<latLng>
					<lat>51.381607</lat>
					<lng>-1.002413</lng>
				</latLng>
				<latLng>
					<lat>51.381584</lat>
					<lng>-1.002735</lng>
				</latLng>
				<latLng>
					<lat>51.381645</lat>
					<lng>-1.002905</lng>
				</latLng>
				<latLng>
					<lat>51.382003</lat>
					<lng>-1.003178</lng>
				</latLng>
				<latLng>
					<lat>51.382167</lat>
					<lng>-1.003368</lng>
				</latLng>
				<latLng>
					<lat>51.383033</lat>
					<lng>-1.004588</lng>
				</latLng>
				<latLng>
					<lat>51.383506</lat>
					<lng>-1.005378</lng>
				</latLng>
				<latLng>
					<lat>51.383632</lat>
					<lng>-1.005645</lng>
				</latLng>
				<latLng>
					<lat>51.383987</lat>
					<lng>-1.007112</lng>
				</latLng>
				<latLng>
					<lat>51.384216</lat>
					<lng>-1.007825</lng>
				</latLng>
				<latLng>
					<lat>51.384319</lat>
					<lng>-1.00819</lng>
				</latLng>
				<latLng>
					<lat>51.384967</lat>
					<lng>-1.010797</lng>
				</latLng>
				<latLng>
					<lat>51.3852</lat>
					<lng>-1.011476</lng>
				</latLng>
				<latLng>
					<lat>51.385742</lat>
					<lng>-1.012768</lng>
				</latLng>
				<latLng>
					<lat>51.385959</lat>
					<lng>-1.013365</lng>
				</latLng>
				<latLng>
					<lat>51.386043</lat>
					<lng>-1.013527</lng>
				</latLng>
				<latLng>
					<lat>51.386119</lat>
					<lng>-1.013512</lng>
				</latLng>
				<latLng>
					<lat>51.386119</lat>
					<lng>-1.013512</lng>
				</latLng>
				<latLng>
					<lat>51.386123</lat>
					<lng>-1.015506</lng>
				</latLng>
				<latLng>
					<lat>51.386344</lat>
					<lng>-1.019157</lng>
				</latLng>
				<latLng>
					<lat>51.386344</lat>
					<lng>-1.019157</lng>
				</latLng>
				<latLng>
					<lat>51.385997</lat>
					<lng>-1.020228</lng>
				</latLng>
				<latLng>
					<lat>51.385997</lat>
					<lng>-1.020228</lng>
				</latLng>
				<latLng>
					<lat>51.386333</lat>
					<lng>-1.02057</lng>
				</latLng>
				<latLng>
					<lat>51.386592</lat>
					<lng>-1.020709</lng>
				</latLng>
				<latLng>
					<lat>51.388778</lat>
					<lng>-1.020787</lng>
				</latLng>
				<latLng>
					<lat>51.389438</lat>
					<lng>-1.020555</lng>
				</latLng>
				<latLng>
					<lat>51.390258</lat>
					<lng>-1.020493</lng>
				</latLng>
				<latLng>
					<lat>51.391323</lat>
					<lng>-1.020946</lng>
				</latLng>
				<latLng>
					<lat>51.391796</lat>
					<lng>-1.021064</lng>
				</latLng>
				<latLng>
					<lat>51.392662</lat>
					<lng>-1.021041</lng>
				</latLng>
				<latLng>
					<lat>51.392776</lat>
					<lng>-1.0211</lng>
				</latLng>
				<latLng>
					<lat>51.392864</lat>
					<lng>-1.021329</lng>
				</latLng>
				<latLng>
					<lat>51.392902</lat>
					<lng>-1.022161</lng>
				</latLng>
				<latLng>
					<lat>51.392963</lat>
					<lng>-1.02256</lng>
				</latLng>
				<latLng>
					<lat>51.393138</lat>
					<lng>-1.022992</lng>
				</latLng>
				<latLng>
					<lat>51.393882</lat>
					<lng>-1.023663</lng>
				</latLng>
				<latLng>
					<lat>51.394474</lat>
					<lng>-1.023771</lng>
				</latLng>
				<latLng>
					<lat>51.395595</lat>
					<lng>-1.023426</lng>
				</latLng>
				<latLng>
					<lat>51.39579</lat>
					<lng>-1.023319</lng>
				</latLng>
				<latLng>
					<lat>51.395977</lat>
					<lng>-1.023275</lng>
				</latLng>
				<latLng>
					<lat>51.397239</lat>
					<lng>-1.023656</lng>
				</latLng>
				<latLng>
					<lat>51.398044</lat>
					<lng>-1.024</lng>
				</latLng>
				<latLng>
					<lat>51.399501</lat>
					<lng>-1.024158</lng>
				</latLng>
				<latLng>
					<lat>51.399501</lat>
					<lng>-1.024158</lng>
				</latLng>
				<latLng>
					<lat>51.399162</lat>
					<lng>-1.026643</lng>
				</latLng>
				<latLng>
					<lat>51.399116</lat>
					<lng>-1.027315</lng>
				</latLng>
				<latLng>
					<lat>51.398967</lat>
					<lng>-1.028239</lng>
				</latLng>
				<latLng>
					<lat>51.398689</lat>
					<lng>-1.029183</lng>
				</latLng>
				<latLng>
					<lat>51.398162</lat>
					<lng>-1.030225</lng>
				</latLng>
				<latLng>
					<lat>51.397056</lat>
					<lng>-1.031923</lng>
				</latLng>
				<latLng>
					<lat>51.397056</lat>
					<lng>-1.031923</lng>
				</latLng>
				<latLng>
					<lat>51.396057</lat>
					<lng>-1.031627</lng>
				</latLng>
				<latLng>
					<lat>51.395698</lat>
					<lng>-1.031391</lng>
				</latLng>
				<latLng>
					<lat>51.395507</lat>
					<lng>-1.031319</lng>
				</latLng>
				<latLng>
					<lat>51.394836</lat>
					<lng>-1.031355</lng>
				</latLng>
				<latLng>
					<lat>51.394424</lat>
					<lng>-1.031213</lng>
				</latLng>
				<latLng>
					<lat>51.39421</lat>
					<lng>-1.03109</lng>
				</latLng>
				<latLng>
					<lat>51.393947</lat>
					<lng>-1.031136</lng>
				</latLng>
				<latLng>
					<lat>51.393661</lat>
					<lng>-1.031327</lng>
				</latLng>
				<latLng>
					<lat>51.393356</lat>
					<lng>-1.031352</lng>
				</latLng>
				<latLng>
					<lat>51.392707</lat>
					<lng>-1.031358</lng>
				</latLng>
				<latLng>
					<lat>51.392597</lat>
					<lng>-1.031422</lng>
				</latLng>
				<latLng>
					<lat>51.392173</lat>
					<lng>-1.032065</lng>
				</latLng>
				<latLng>
					<lat>51.391994</lat>
					<lng>-1.032279</lng>
				</latLng>
				<latLng>
					<lat>51.39133</lat>
					<lng>-1.032575</lng>
				</latLng>
				<latLng>
					<lat>51.390884</lat>
					<lng>-1.033285</lng>
				</latLng>
				<latLng>
					<lat>51.390342</lat>
					<lng>-1.0345</lng>
				</latLng>
				<latLng>
					<lat>51.389839</lat>
					<lng>-1.036599</lng>
				</latLng>
				<latLng>
					<lat>51.389266</lat>
					<lng>-1.03811</lng>
				</latLng>
				<latLng>
					<lat>51.387866</lat>
					<lng>-1.03936</lng>
				</latLng>
				<latLng>
					<lat>51.387866</lat>
					<lng>-1.03936</lng>
				</latLng>
				<latLng>
					<lat>51.387821</lat>
					<lng>-1.039098</lng>
				</latLng>
				<latLng>
					<lat>51.387779</lat>
					<lng>-1.038712</lng>
				</latLng>
				<latLng>
					<lat>51.387584</lat>
					<lng>-1.037616</lng>
				</latLng>
				<latLng>
					<lat>51.387596</lat>
					<lng>-1.03723</lng>
				</latLng>
				<latLng>
					<lat>51.387641</lat>
					<lng>-1.036805</lng>
				</latLng>
				<latLng>
					<lat>51.387584</lat>
					<lng>-1.035938</lng>
				</latLng>
				<latLng>
					<lat>51.387428</lat>
					<lng>-1.035382</lng>
				</latLng>
				<latLng>
					<lat>51.387428</lat>
					<lng>-1.035382</lng>
				</latLng>
				<latLng>
					<lat>51.387462</lat>
					<lng>-1.035318</lng>
				</latLng>
				<latLng>
					<lat>51.387462</lat>
					<lng>-1.035246</lng>
				</latLng>
				<latLng>
					<lat>51.387462</lat>
					<lng>-1.035246</lng>
				</latLng>
				<latLng>
					<lat>51.387424</lat>
					<lng>-1.035176</lng>
				</latLng>
				<latLng>
					<lat>51.387374</lat>
					<lng>-1.035166</lng>
				</latLng>
				<latLng>
					<lat>51.387351</lat>
					<lng>-1.035181</lng>
				</latLng>
				<latLng>
					<lat>51.387351</lat>
					<lng>-1.035181</lng>
				</latLng>
				<latLng>
					<lat>51.387317</lat>
					<lng>-1.035053</lng>
				</latLng>
				<latLng>
					<lat>51.387081</lat>
					<lng>-1.034494</lng>
				</latLng>
				<latLng>
					<lat>51.386962</lat>
					<lng>-1.034345</lng>
				</latLng>
				<latLng>
					<lat>51.386833</lat>
					<lng>-1.03426</lng>
				</latLng>
				<latLng>
					<lat>51.386638</lat>
					<lng>-1.034114</lng>
				</latLng>
				<latLng>
					<lat>51.386501</lat>
					<lng>-1.033982</lng>
				</latLng>
				<latLng>
					<lat>51.386413</lat>
					<lng>-1.033807</lng>
				</latLng>
				<latLng>
					<lat>51.386379</lat>
					<lng>-1.033607</lng>
				</latLng>
				<latLng>
					<lat>51.386375</lat>
					<lng>-1.033434</lng>
				</latLng>
				<latLng>
					<lat>51.386409</lat>
					<lng>-1.033174</lng>
				</latLng>
				<latLng>
					<lat>51.386512</lat>
					<lng>-1.032953</lng>
				</latLng>
				<latLng>
					<lat>51.386871</lat>
					<lng>-1.032199</lng>
				</latLng>
				<latLng>
					<lat>51.386997</lat>
					<lng>-1.031823</lng>
				</latLng>
				<latLng>
					<lat>51.387054</lat>
					<lng>-1.031581</lng>
				</latLng>
			</shapePoints>
			<legIndexes>
				<index>0</index>
				<index>135</index>
				<index>341</index>
			</legIndexes>
			<maneuverIndexes>
				<index>0</index>
				<index>3</index>
				<index>5</index>
				<index>9</index>
				<index>12</index>
				<index>33</index>
				<index>36</index>
				<index>42</index>
				<index>51</index>
				<index>103</index>
				<index>111</index>
				<index>113</index>
				<index>116</index>
				<index>123</index>
				<index>127</index>
				<index>130</index>
				<index>133</index>
				<index>135</index>
				<index>135</index>
				<index>137</index>
				<index>140</index>
				<index>143</index>
				<index>147</index>
				<index>154</index>
				<index>157</index>
				<index>159</index>
				<index>167</index>
				<index>209</index>
				<index>223</index>
				<index>243</index>
				<index>265</index>
				<index>295</index>
				<index>326</index>
				<index>341</index>
				<index>341</index>
				<index>350</index>
				<index>368</index>
				<index>371</index>
				<index>373</index>
				<index>395</index>
				<index>402</index>
				<index>422</index>
				<index>430</index>
				<index>433</index>
				<index>437</index>
				<index>452</index>
			</maneuverIndexes>
		</shape>
	</route>
</response>
